var features = {"head":{"status":"1","timestamp":"2014-03-21 14:31:32","hits":1532},"type":"FeatureCollection","features":[{"geometry":{"type":"Point","coordinates":[13.0948032974,55.5361893411]},"type":"Feature","id":"k1280\/281","properties":{"image":null,"popupContent":"<ul><li> <b>Kunskapens och dr\u00f6mmarnas k\u00e4lla<\/b><\/li><li> Olle Blad - 1982<\/li><li> Malm\u00f6 kommun (Oxie) - Oxiev\u00e5ngsskolan, Keramikv\u00e4gen<\/li><\/ul>","title":"Kunskapens och dr\u00f6mmarnas k\u00e4lla"}},{"geometry":{"type":"Point","coordinates":[13.0957474201,55.5395870685]},"type":"Feature","id":"k1280\/282","properties":{"image":null,"popupContent":"<ul><li> <b>Meditation<\/b><\/li><li> <a href=\"https:\/\/sv.wikipedia.org\/wiki\/Fred_%C3%85berg\" target=\"_blank\">Fred \u00c5berg<\/a> - 1985<\/li><li> Malm\u00f6 kommun (Oxie) - Torget Oxie centrum_f\u00f6rut, nu borttagen<\/li><\/ul>","title":"Meditation"}},{"geometry":{"type":"Point","coordinates":[13.1037958503,55.5401496763]},"type":"Feature","id":"k1280\/282B","properties":{"image":null,"popupContent":"<ul><li> <b>utan titel<\/b><\/li><li> <i>Ok\u00e4nd konstn\u00e4r<\/i><\/li><li> Malm\u00f6 kommun (Oxie) - g\u00e5ng och cykeltunnel p\u00e5 Osh\u00f6gav\u00e4gen<\/li><\/ul>","title":"utan titel"}},{"geometry":{"type":"Point","coordinates":[13.08425564,55.5426597]},"type":"Feature","id":"k1280\/905","properties":{"image":null,"popupContent":"<ul><li> <b>Vindspel och Rymdskeppet<\/b><\/li><li> Sergio Gio - 2013<\/li><li> Malm\u00f6 kommun (Oxie) - Tycho Brahe Observatoriet, Oxie<\/li><\/ul>","title":"Vindspel och Rymdskeppet"}},{"geometry":{"type":"Point","coordinates":[12.9904000426,55.5482391013]},"type":"Feature","id":"k1280\/131B","properties":{"image":null,"popupContent":"<ul><li> <b>COMA:F 724 SERIES<\/b><\/li><li> The 2003 Recon\/De-Con group - 2003<\/li><li> Malm\u00f6 kommun (Hyllie) - Sv\u00e5gertorps terminal<\/li><\/ul>","title":"COMA:F 724 SERIES"}},{"geometry":{"type":"Point","coordinates":[13.0128966005,55.5577039652]},"type":"Feature","id":"k1280\/199","properties":{"image":null,"popupContent":"<ul><li> <b>V\u00e4gen f\u00f6r och genom A<\/b><\/li><li> <a href=\"https:\/\/sv.wikipedia.org\/wiki\/J%C3%B6rgen_Fogelquist\" target=\"_blank\">J\u00f6rgen Fogelquist<\/a> - 1974<\/li><li> Malm\u00f6 kommun (Fosie) - Lind\u00e4ngeskolan, Munkh\u00e4ttegatan 151<\/li><\/ul>","title":"V\u00e4gen f\u00f6r och genom A"}},{"geometry":{"type":"Point","coordinates":[12.93093009,55.55787115]},"type":"Feature","id":"k1280\/132B","properties":{"image":null,"popupContent":"<ul><li> <b>F\u00e5r<\/b><\/li><li> Anne Smith - 2010<\/li><li> Malm\u00f6 kommun (Limhamn-Bunkeflo) - Hantverkareparken, Annestad, Niels Bunkeflos v\u00e4g 5<\/li><\/ul>","title":"F\u00e5r"}},{"geometry":{"type":"Point","coordinates":[13.01781109,55.55860156]},"type":"Feature","id":"k1280\/917","properties":{"image":null,"popupContent":"<ul><li> <b>H\u00e4r vilar manligheten<\/b><\/li><li> Elias Bj\u00f6rn - 2013<\/li><li> Malm\u00f6 kommun (Fosie) - Motetten Lind\u00e4ngen<\/li><\/ul>","title":"H\u00e4r vilar manligheten"}},{"geometry":{"type":"Point","coordinates":[13.01285899,55.55868205]},"type":"Feature","id":"k1280\/199b","properties":{"image":null,"popupContent":"<ul><li> <b>Serieteckningskonst<\/b><\/li><li> <a href=\"https:\/\/sv.wikipedia.org\/wiki\/Jimmy_Wallin\" target=\"_blank\">Jimmy Wallin<\/a>, <a href=\"https:\/\/sv.wikipedia.org\/wiki\/Johanna_Kristiansson\" target=\"_blank\">Johanna Kristiansson<\/a> - 2013<\/li><li> Malm\u00f6 kommun (Fosie) - G\u00e5ng- och cykeltunnel under Munkh\u00e4ttegatan<\/li><\/ul>","title":"Serieteckningskonst"}},{"geometry":{"type":"Point","coordinates":[13.0161652184,55.5594858488]},"type":"Feature","id":"k1280\/198","properties":{"image":null,"popupContent":"<ul><li> <b>Evolution<\/b><\/li><li> <a href=\"https:\/\/sv.wikipedia.org\/wiki\/Willy_Gordon\" target=\"_blank\">Willy Gordon<\/a> - 1972<\/li><li> Malm\u00f6 kommun (Fosie) - Lind\u00e4ngsstigen, Kantatgatan 72<\/li><\/ul>","title":"Evolution"}},{"geometry":{"type":"Point","coordinates":[13.0206630137,55.5604883189]},"type":"Feature","id":"k1280\/186","properties":{"image":null,"popupContent":"<ul><li> <b>Pilall\u00e9n I<\/b><\/li><li> Hermine Bjerke - 1971<\/li><li> Malm\u00f6 kommun (Fosie) - Kantatgatan 1<\/li><\/ul>","title":"Pilall\u00e9n I"}},{"geometry":{"type":"Point","coordinates":[13.0205820888,55.5608608498]},"type":"Feature","id":"k1280\/188","properties":{"image":null,"popupContent":"<ul><li> <b>Pilall\u00e9n III<\/b><\/li><li> Hermine Bjerke - 1971<\/li><li> Malm\u00f6 kommun (Fosie) - Kantatgatan 4<\/li><\/ul>","title":"Pilall\u00e9n III"}},{"geometry":{"type":"Point","coordinates":[13.0205200257,55.560881715]},"type":"Feature","id":"k1280\/187","properties":{"image":null,"popupContent":"<ul><li> <b>Pilall\u00e9n II<\/b><\/li><li> Hermine Bjerke - 1971<\/li><li> Malm\u00f6 kommun (Fosie) - Kantatgatan 2<\/li><\/ul>","title":"Pilall\u00e9n II"}},{"geometry":{"type":"Point","coordinates":[12.9933565102,55.5610667951]},"type":"Feature","id":"k1280\/169","properties":{"image":null,"popupContent":"<ul><li> <b>Kastanjer<\/b><\/li><li> Rune S\u00e4ll - 1981<\/li><li> Malm\u00f6 kommun (Hyllie) - Lindeborgsgatan 69, (baksidan)<\/li><\/ul>","title":"Kastanjer"}},{"geometry":{"type":"Point","coordinates":[13.060134253,55.5614582668]},"type":"Feature","id":"k1280\/201","properties":{"image":null,"popupContent":"<ul><li> <b>Sektorns mekanik, Sektorns volym<\/b><\/li><li> <a href=\"https:\/\/sv.wikipedia.org\/wiki\/Bertil_Herlow_Svensson\" target=\"_blank\">Bertil Herlow Svensson<\/a> - 1984<\/li><li> Malm\u00f6 kommun (Fosie) - Boplatsgatan 9<\/li><\/ul>","title":"Sektorns mekanik, Sektorns volym"}},{"geometry":{"type":"Point","coordinates":[13.0115217173,55.5615857737]},"type":"Feature","id":"k1280\/197","properties":{"image":null,"popupContent":"<ul><li> <b>Dimman<\/b><\/li><li> <a href=\"https:\/\/sv.wikipedia.org\/wiki\/Stig_Blomberg\" target=\"_blank\">Stig Blomberg<\/a> - 1972<\/li><li> Malm\u00f6 kommun (Fosie) - Serenadgatan 60<\/li><\/ul>","title":"Dimman"}},{"geometry":{"type":"Point","coordinates":[12.9897730598,55.561770681]},"type":"Feature","id":"k1280\/168","properties":{"image":null,"popupContent":"<ul><li> <b>Liten blir stor<\/b><\/li><li> <a href=\"https:\/\/sv.wikipedia.org\/wiki\/Karin_Schultz\" target=\"_blank\">Karin Schultz<\/a> - 1975<\/li><li> Malm\u00f6 kommun (Hyllie) - Lindeborgsskolan, Orkestergatan 7<\/li><\/ul>","title":"Liten blir stor"}},{"geometry":{"type":"Point","coordinates":[13.0260801771,55.5623273613]},"type":"Feature","id":"k1280\/200","properties":{"image":null,"popupContent":"<ul><li> <b>F\u00e4rden<\/b><\/li><li> <a href=\"https:\/\/sv.wikipedia.org\/wiki\/Fred_%C3%85berg\" target=\"_blank\">Fred \u00c5berg<\/a> - 1979<\/li><li> Malm\u00f6 kommun (Fosie) - Minneslunden, Fosie kyrkog\u00e5rd<\/li><\/ul>","title":"F\u00e4rden"}},{"geometry":{"type":"Point","coordinates":[12.9758812202,55.5627345055]},"type":"Feature","id":"k1280\/168B","properties":{"image":null,"popupContent":"<ul><li> <b>Tidsf\u00f6rdjupningar<\/b><\/li><li> Christina Matousch - 2010<\/li><li> Malm\u00f6 kommun (Hyllie) - Hyllie station<\/li><\/ul>","title":"Tidsf\u00f6rdjupningar"}},{"geometry":{"type":"Point","coordinates":[12.97578358,55.56329493]},"type":"Feature","id":"k1280\/168c","properties":{"image":null,"popupContent":"<ul><li> <b>Digital natthimmel<\/b><\/li><li> Thorbj\u00f6rn Andersson, Niklas \u00d6dmann - 2010<\/li><li> Malm\u00f6 kommun (Hyllie) - Hyllie stationstorg<\/li><\/ul>","title":"Digital natthimmel"}},{"geometry":{"type":"Point","coordinates":[12.97606071,55.56337665]},"type":"Feature","id":"k1280\/911","properties":{"image":null,"popupContent":"<ul><li> <b>Out of the blue<\/b><\/li><li> Karin Frennesson Westblad - 2013<\/li><li> Malm\u00f6 kommun (Hyllie) - Hyllie Stationstorg<\/li><\/ul>","title":"Out of the blue"}},{"geometry":{"type":"Point","coordinates":[12.9026294824,55.5637548214]},"type":"Feature","id":"k1280\/131","properties":{"image":null,"popupContent":"<ul><li> <b>The movement meter for Lernacken; The tower<\/b><\/li><li> <a href=\"https:\/\/sv.wikipedia.org\/wiki\/Olafur_Eliasson\" target=\"_blank\">Olafur Eliasson<\/a> - 2000<\/li><li> Malm\u00f6 kommun (Limhamn-Bunkeflo) - S\u00f6dra sidan av brof\u00e4stet p\u00e5 \u00d6resundsbron<\/li><\/ul>","title":"The movement meter for Lernacken; The tower"}},{"geometry":{"type":"Point","coordinates":[13.0120327139,55.5650229271]},"type":"Feature","id":"k1280\/190","properties":{"image":null,"popupContent":"<ul><li> <b>Treklang<\/b><\/li><li> <a href=\"https:\/\/sv.wikipedia.org\/wiki\/Gunnel_Frieberg\" target=\"_blank\">Gunnel Frieberg<\/a> - 1974<\/li><li> Malm\u00f6 kommun (Fosie) - Ormvr\u00e5ksgatan 12<\/li><\/ul>","title":"Treklang"}},{"geometry":{"type":"Point","coordinates":[12.97936832,55.56533819]},"type":"Feature","id":"k1280\/168f","properties":{"image":null,"popupContent":"<ul><li> <b>Mosaik i Vattenparken<\/b><\/li><li> Anna Klara \u00c5hr\u00e9n, Anna Viklund - 2012<\/li><li> Malm\u00f6 kommun (Hyllie) - Vattenparken, Hyllie<\/li><\/ul>","title":"Mosaik i Vattenparken"}},{"geometry":{"type":"Point","coordinates":[12.97548,55.56611]},"type":"Feature","id":"k1280\/168E","properties":{"image":null,"popupContent":"<ul><li> <b>Ansiktfont\u00e4n<\/b><\/li><li> Charlotte Gyllenhammar - 2014<\/li><li> Malm\u00f6 kommun (Hyllie) - Hyllie boulevard\/Hyllie vattenparksgata, samt den intilliggande mindre rondellen<\/li><\/ul>","title":"Ansiktfont\u00e4n"}},{"geometry":{"type":"Point","coordinates":[13.0069977123,55.5668108795]},"type":"Feature","id":"k1280\/191","properties":{"image":null,"popupContent":"<ul><li> <b>F\u00f6delse i rymden<\/b><\/li><li> Karin Norelius - 1974<\/li><li> Malm\u00f6 kommun (Fosie) - Fosietorpsparken<\/li><\/ul>","title":"F\u00f6delse i rymden"}},{"geometry":{"type":"Point","coordinates":[13.0248379381,55.5670670781]},"type":"Feature","id":"k1280\/184","properties":{"image":null,"popupContent":"<ul><li> <b>Urtidsm\u00e4nniskor II<\/b><\/li><li> <a href=\"https:\/\/sv.wikipedia.org\/wiki\/Alf_Olsson\" target=\"_blank\">Alf Olsson<\/a> - 1966<\/li><li> Malm\u00f6 kommun (Fosie) - Eriksf\u00e4ltsgatan 100, Gullviksborg, Gubbabacken<\/li><\/ul>","title":"Urtidsm\u00e4nniskor II"}},{"geometry":{"type":"Point","coordinates":[13.0188075978,55.5671448737]},"type":"Feature","id":"k1280\/185","properties":{"image":null,"popupContent":"<ul><li> <b>Tackling<\/b><\/li><li> <a href=\"https:\/\/sv.wikipedia.org\/wiki\/Thure_Th%C3%B6rn\" target=\"_blank\">Thure Th\u00f6rn<\/a> - 1969<\/li><li> Malm\u00f6 kommun (Fosie) - Hermodsdalsskolan, Eriksf\u00e4ltsgatan 99<\/li><\/ul>","title":"Tackling"}},{"geometry":{"type":"Point","coordinates":[13.0104983815,55.5673713793]},"type":"Feature","id":"k1280\/193","properties":{"image":null,"popupContent":"<ul><li> <b>Nibelungskatten<\/b><\/li><li> Owe Wessborn - 1968<\/li><li> Malm\u00f6 kommun (Fosie) - Baksidan aff\u00e4rscentret, Tornfalksgatan<\/li><\/ul>","title":"Nibelungskatten"}},{"geometry":{"type":"Point","coordinates":[12.9000198081,55.5677907875]},"type":"Feature","id":"k1280\/132","properties":{"image":null,"popupContent":"<ul><li> <b>The movement meter for Lernacken; The lightpavillion<\/b><\/li><li> <a href=\"https:\/\/sv.wikipedia.org\/wiki\/Olafur_Eliasson\" target=\"_blank\">Olafur Eliasson<\/a> - 2001<\/li><li> Malm\u00f6 kommun (Limhamn-Bunkeflo) - S\u00f6dra sidan av brof\u00e4stet p\u00e5 \u00d6resundsbron<\/li><\/ul>","title":"The movement meter for Lernacken; The lightpavillion"}},{"geometry":{"type":"Point","coordinates":[13.0066512048,55.5695685189]},"type":"Feature","id":"k1280\/194","properties":{"image":null,"popupContent":"<ul><li> <b>Evigt gyllne sol densamma<\/b><\/li><li> <a href=\"https:\/\/sv.wikipedia.org\/wiki\/Rune_Karlzon\" target=\"_blank\">Rune Karlzon<\/a> - 1975<\/li><li> Malm\u00f6 kommun (Fosie) - S\u00f6dra Gulsparvsgatan 26<\/li><\/ul>","title":"Evigt gyllne sol densamma"}},{"geometry":{"type":"Point","coordinates":[13.0060092168,55.5700092004]},"type":"Feature","id":"k1280\/195","properties":{"image":null,"popupContent":"<ul><li> <b>Panter<\/b><\/li><li> Tove Persson - 1970<\/li><li> Malm\u00f6 kommun (Fosie) - S\u00f6dra Gulsparvsgatan 26<\/li><\/ul>","title":"Panter"}},{"geometry":{"type":"Point","coordinates":[12.9419180722,55.5702565]},"type":"Feature","id":"k1280\/902","properties":{"image":null,"popupContent":"<ul><li> <b>Offside<\/b><\/li><li> Zardasht Faraj - 2013<\/li><li> Malm\u00f6 kommun (Limhamn-Bunkeflo) - Utkiksplatsen vid Limhamns kalkbrott, Victoria park<\/li><\/ul>","title":"Offside"}},{"geometry":{"type":"Point","coordinates":[13.0093579742,55.570442472]},"type":"Feature","id":"k1280\/192","properties":{"image":null,"popupContent":"<ul><li> <b>Mor och barn<\/b><\/li><li> <a href=\"https:\/\/sv.wikipedia.org\/wiki\/Willy_Gordon\" target=\"_blank\">Willy Gordon<\/a> - 1964<\/li><li> Malm\u00f6 kommun (Fosie) - S\u00f6derkullatorget<\/li><\/ul>","title":"Mor och barn"}},{"geometry":{"type":"Point","coordinates":[13.0080842175,55.5704949428]},"type":"Feature","id":"k1280\/196","properties":{"image":null,"popupContent":"<ul><li> <b>Flicka p\u00e5 g\u00e5s<\/b><\/li><li> A. Olin - 1919<\/li><li> Malm\u00f6 kommun (Fosie) - Berguvsgatan 4 (annan placering tidigare)<\/li><\/ul>","title":"Flicka p\u00e5 g\u00e5s"}},{"geometry":{"type":"Point","coordinates":[13.0019143479,55.5707934761]},"type":"Feature","id":"k1280\/142","properties":{"image":null,"popupContent":"<ul><li> <b>I rena gl\u00e4djen<\/b><\/li><li> <a href=\"https:\/\/sv.wikipedia.org\/wiki\/Barbro_B%C3%A4ckstr%C3%B6m\" target=\"_blank\">Barbro B\u00e4ckstr\u00f6m<\/a> - 1975<\/li><li> Malm\u00f6 kommun (Hyllie) - Kulladalsgatan 22<\/li><\/ul>","title":"I rena gl\u00e4djen"}},{"geometry":{"type":"Point","coordinates":[13.0180948136,55.5708837466]},"type":"Feature","id":"k1280\/183","properties":{"image":null,"popupContent":"<ul><li> <b>G\u00e5sen<\/b><\/li><li> <a href=\"https:\/\/sv.wikipedia.org\/wiki\/Edvin_%C3%96hrstr%C3%B6m\" target=\"_blank\">Edvin \u00d6hrstr\u00f6m<\/a> - 1965<\/li><li> Malm\u00f6 kommun (Fosie) - Nydalaskolan, Kollegiegatan 11<\/li><\/ul>","title":"G\u00e5sen"}},{"geometry":{"type":"Point","coordinates":[13.0221380655,55.5710475985]},"type":"Feature","id":"k1280\/182","properties":{"image":null,"popupContent":"<ul><li> <b>Duvor<\/b><\/li><li> Henry W Hallberg - 1990<\/li><li> Malm\u00f6 kommun (Fosie) - Kollegiegatan 1<\/li><\/ul>","title":"Duvor"}},{"geometry":{"type":"Point","coordinates":[13.0579477675,55.5710707529]},"type":"Feature","id":"k1280\/276","properties":{"image":null,"popupContent":"<ul><li> <b>Pegasus med sitt hov<\/b><\/li><li> <a href=\"https:\/\/sv.wikipedia.org\/wiki\/Aline_Magnusson\" target=\"_blank\">Aline Magnusson<\/a> - 2005<\/li><li> Malm\u00f6 kommun (Husie) - Coop Forum, J\u00e4gersro Center Konstverket \u00e4r 15 l\u00e5ngt med sju galopperande h\u00e4star i naturlig storlek<\/li><\/ul>","title":"Pegasus med sitt hov"}},{"geometry":{"type":"Point","coordinates":[13.0199184368,55.571459558]},"type":"Feature","id":"k1280\/181","properties":{"image":null,"popupContent":"<ul><li> <b>Harmoni<\/b><\/li><li> Henry W Hallberg - 1990<\/li><li> Malm\u00f6 kommun (Fosie) - Kollegiegatan 9<\/li><\/ul>","title":"Harmoni"}},{"geometry":{"type":"Point","coordinates":[12.9457206283,55.572003171]},"type":"Feature","id":"k1280\/134","properties":{"image":null,"popupContent":"<ul><li> <b>Guds hand<\/b><\/li><li> <a href=\"https:\/\/sv.wikipedia.org\/wiki\/Carl_Milles\" target=\"_blank\">Carl Milles<\/a> - 1967<\/li><li> Malm\u00f6 kommun (Limhamn-Bunkeflo) - Minneslunden, Limhamns kyrkog\u00e5rd<\/li><\/ul>","title":"Guds hand"}},{"geometry":{"type":"Point","coordinates":[12.9160859121,55.5720356359]},"type":"Feature","id":"k1280\/130B","properties":{"image":null,"popupContent":"<ul><li> <b>Sn\u00e4ckan<\/b><\/li><li> Lotte Forsf\u00e4lt - 2005<\/li><li> Malm\u00f6 kommun (Limhamn-Bunkeflo) - Vid lekplats i Hammars park<\/li><\/ul>","title":"Sn\u00e4ckan"}},{"geometry":{"type":"Point","coordinates":[13.0019205212,55.5721345291]},"type":"Feature","id":"k1280\/143","properties":{"image":null,"popupContent":"<ul><li> <b>Samtal<\/b><\/li><li> Bjarne Andersson - 1968<\/li><li> Malm\u00f6 kommun (Hyllie) - Kulladals torg<\/li><\/ul>","title":"Samtal"}},{"geometry":{"type":"Point","coordinates":[13.0077553834,55.5725527694]},"type":"Feature","id":"k1280\/189","properties":{"image":null,"popupContent":"<ul><li> <b>P\u00e4rlfiskarens dr\u00f6m<\/b><\/li><li> Per L\u00f6vgren - 1988<\/li><li> Malm\u00f6 kommun (Fosie) - L\u00f6vs\u00e5ngaregatan 30<\/li><\/ul>","title":"P\u00e4rlfiskarens dr\u00f6m"}},{"geometry":{"type":"Point","coordinates":[12.9011273133,55.5726476468]},"type":"Feature","id":"k1280\/130","properties":{"image":null,"popupContent":"<ul><li> <b>Flyktingmonument<\/b><\/li><li> <a href=\"https:\/\/sv.wikipedia.org\/wiki\/Bror_Marklund\" target=\"_blank\">Bror Marklund<\/a> - 1950<\/li><li> Malm\u00f6 kommun (Limhamn-Bunkeflo) - Sibbarp<\/li><\/ul>","title":"Flyktingmonument"}},{"geometry":{"type":"Point","coordinates":[12.9750524318,55.5728397085]},"type":"Feature","id":"k1280\/165","properties":{"image":null,"popupContent":"<ul><li> <b>Hylliem\u00f6llan<\/b><\/li><li> <a href=\"https:\/\/sv.wikipedia.org\/wiki\/Barbro_B%C3%A4ckstr%C3%B6m\" target=\"_blank\">Barbro B\u00e4ckstr\u00f6m<\/a>, <a href=\"https:\/\/sv.wikipedia.org\/wiki\/Holger_B%C3%A4ckstr%C3%B6m\" target=\"_blank\">Holger B\u00e4ckstr\u00f6m<\/a> - 1968<\/li><li> Malm\u00f6 kommun (Hyllie) - S\u00f6rb\u00e4cksgatan 10<\/li><\/ul>","title":"Hylliem\u00f6llan"}},{"geometry":{"type":"Point","coordinates":[12.9982426447,55.5730651674]},"type":"Feature","id":"k1280\/144","properties":{"image":null,"popupContent":"<ul><li> <b>Per Albin Hansson (1885 \u20131946)<\/b><\/li><li> Thure Johansson - 1967<\/li><li> Malm\u00f6 kommun (Hyllie) - Per Albin Hanssons v\u00e4g 91<\/li><\/ul>","title":"Per Albin Hansson (1885 \u20131946)"}},{"geometry":{"type":"Point","coordinates":[13.0199510157,55.5731165224]},"type":"Feature","id":"k1280\/179","properties":{"image":null,"popupContent":"<ul><li> <b>Mytologisk strid<\/b><\/li><li> Bertil Gad\u00f6 - 1964<\/li><li> Malm\u00f6 kommun (Fosie) - Nydalatorget<\/li><\/ul>","title":"Mytologisk strid"}},{"geometry":{"type":"Point","coordinates":[12.9733460373,55.5731907765]},"type":"Feature","id":"k1280\/163","properties":{"image":null,"popupContent":"<ul><li> <b>R\u00e5gsk\u00f6rd<\/b><\/li><li> <a href=\"https:\/\/sv.wikipedia.org\/wiki\/Willy_Gordon\" target=\"_blank\">Willy Gordon<\/a> - 1968<\/li><li> Malm\u00f6 kommun (Hyllie) - S\u00f6rb\u00e4cksgatan 22\u2013 32<\/li><\/ul>","title":"R\u00e5gsk\u00f6rd"}},{"geometry":{"type":"Point","coordinates":[12.9734162521,55.5733223068]},"type":"Feature","id":"k1280\/162","properties":{"image":null,"popupContent":"<ul><li> <b>Vilddjur<\/b><\/li><li> <a href=\"https:\/\/sv.wikipedia.org\/wiki\/Thure_Th%C3%B6rn\" target=\"_blank\">Thure Th\u00f6rn<\/a> - 1969<\/li><li> Malm\u00f6 kommun (Hyllie) - S\u00f6rb\u00e4cksgatan 22\u2013 32 och Hylliev\u00e5ngsv\u00e4gen 15<\/li><\/ul>","title":"Vilddjur"}},{"geometry":{"type":"Point","coordinates":[13.0202600919,55.5733689614]},"type":"Feature","id":"k1280\/178","properties":{"image":null,"popupContent":"<ul><li> <b>Vattentrappa<\/b><\/li><li> Birre Skoglund - 1991<\/li><li> Malm\u00f6 kommun (Fosie) - Nydalatorget<\/li><\/ul>","title":"Vattentrappa"}},{"geometry":{"type":"Point","coordinates":[13.0203484654,55.5734803258]},"type":"Feature","id":"k1280\/177","properties":{"image":null,"popupContent":"<ul><li> <b>Inkaprinsessa<\/b><\/li><li> <a href=\"https:\/\/sv.wikipedia.org\/wiki\/Torsten_Fridh\" target=\"_blank\">Torsten Fridh<\/a> - 1967<\/li><li> Malm\u00f6 kommun (Fosie) - Nydalatorget<\/li><\/ul>","title":"Inkaprinsessa"}},{"geometry":{"type":"Point","coordinates":[12.9727163991,55.5735766363]},"type":"Feature","id":"k1280\/164","properties":{"image":null,"popupContent":"<ul><li> <b>Svalorna<\/b><\/li><li> <a href=\"https:\/\/sv.wikipedia.org\/wiki\/Ebba_Hedqvist\" target=\"_blank\">Ebba Hedqvist<\/a> - 1968<\/li><li> Malm\u00f6 kommun (Hyllie) - S\u00f6rb\u00e4cksgatan 32\u2013 44<\/li><\/ul>","title":"Svalorna"}},{"geometry":{"type":"Point","coordinates":[13.0161680633,55.5737881528]},"type":"Feature","id":"k1280\/180","properties":{"image":null,"popupContent":"<ul><li> <b>Flicka med boll<\/b><\/li><li> Arthur Johansson - 1964<\/li><li> Malm\u00f6 kommun (Fosie) - Lektorsg\u00e5ngen 5<\/li><\/ul>","title":"Flicka med boll"}},{"geometry":{"type":"Point","coordinates":[13.0170002116,55.5764370189]},"type":"Feature","id":"k1280\/174","properties":{"image":null,"popupContent":"<ul><li> <b>Kultplats<\/b><\/li><li> <a href=\"https:\/\/sv.wikipedia.org\/wiki\/Walter_Bengtsson\" target=\"_blank\">Walter Bengtsson<\/a> - 1967<\/li><li> Malm\u00f6 kommun (Fosie) - Munkh\u00e4ttegatan 22<\/li><\/ul>","title":"Kultplats"}},{"geometry":{"type":"Point","coordinates":[12.9898327361,55.5765256658]},"type":"Feature","id":"k1280\/167","properties":{"image":null,"popupContent":"<ul><li> <b>Framtidsvision<\/b><\/li><li> <a href=\"https:\/\/sv.wikipedia.org\/wiki\/Alexius_Huber\" target=\"_blank\">Alexius Huber<\/a> - 1989<\/li><li> Malm\u00f6 kommun (Hyllie) - Konsultgatan 25<\/li><\/ul>","title":"Framtidsvision"}},{"geometry":{"type":"Point","coordinates":[13.05240775,55.57653176]},"type":"Feature","id":"k1280\/915","properties":{"image":null,"popupContent":"<ul><li> <b>Tillsammans<\/b><\/li><li> Emma S\u00f6derman Pettersson - 2013<\/li><li> Malm\u00f6 kommun (Husie) - \u00d6g\u00e5rdsparken mittemot V\u00e4stra Skr\u00e4vlinge kyrka<\/li><\/ul>","title":"Tillsammans"}},{"geometry":{"type":"Point","coordinates":[12.9908462187,55.5766570653]},"type":"Feature","id":"k1280\/166","properties":{"image":null,"popupContent":"<ul><li> <b>Optisk art<\/b><\/li><li> <a href=\"https:\/\/sv.wikipedia.org\/wiki\/Alexius_Huber\" target=\"_blank\">Alexius Huber<\/a> - 1988<\/li><li> Malm\u00f6 kommun (Hyllie) - Konsultgatan 25<\/li><\/ul>","title":"Optisk art"}},{"geometry":{"type":"Point","coordinates":[12.9749760428,55.5768662417]},"type":"Feature","id":"k1280\/160","properties":{"image":null,"popupContent":"<ul><li> <b>Ellika med docka<\/b><\/li><li> <a href=\"https:\/\/sv.wikipedia.org\/wiki\/Asmund_Arle\" target=\"_blank\">Asmund Arle<\/a> - 1967<\/li><li> Malm\u00f6 kommun (Hyllie) - Norrb\u00e4cksgatan 41<\/li><\/ul>","title":"Ellika med docka"}},{"geometry":{"type":"Point","coordinates":[13.023515875,55.5769607506]},"type":"Feature","id":"k1280\/172","properties":{"image":null,"popupContent":"<ul><li> <b>M\u00e4nniska och h\u00e4st<\/b><\/li><li> <a href=\"https:\/\/sv.wikipedia.org\/wiki\/Asmund_Arle\" target=\"_blank\">Asmund Arle<\/a> - 1968<\/li><li> Malm\u00f6 kommun (Fosie) - Almtorget<\/li><\/ul>","title":"M\u00e4nniska och h\u00e4st"}},{"geometry":{"type":"Point","coordinates":[13.022724812,55.5769656678]},"type":"Feature","id":"k1280\/173","properties":{"image":null,"popupContent":"<ul><li> <b>Karin<\/b><\/li><li> Arthur Johansson - 1962<\/li><li> Malm\u00f6 kommun (Fosie) - \u00c4renprisgatan 22<\/li><\/ul>","title":"Karin"}},{"geometry":{"type":"Point","coordinates":[12.977570166,55.577121816]},"type":"Feature","id":"k1280\/158","properties":{"image":null,"popupContent":"<ul><li> <b>V\u00e4nner<\/b><\/li><li> Viktor Praznik - 1984<\/li><li> Malm\u00f6 kommun (Hyllie) - Mob\u00e4cksgatan 25<\/li><\/ul>","title":"V\u00e4nner"}},{"geometry":{"type":"Point","coordinates":[12.9758254717,55.5779314716]},"type":"Feature","id":"k1280\/159","properties":{"image":null,"popupContent":"<ul><li> <b>Pojke<\/b><\/li><li> Arthur Johansson - 1966<\/li><li> Malm\u00f6 kommun (Hyllie) - Mob\u00e4cksgatan 11<\/li><\/ul>","title":"Pojke"}},{"geometry":{"type":"Point","coordinates":[13.0029791117,55.5779522183]},"type":"Feature","id":"k1280\/145","properties":{"image":null,"popupContent":"<ul><li> <b>Scaramouche<\/b><\/li><li> 'Jorgo' Krallis - 1990<\/li><li> Malm\u00f6 kommun (Hyllie) - Gr\u00f6nomr\u00e5det mellan husen p\u00e5 Blekingsborg Den grekiskf\u00f6dde 'Jorgo' Krallis, \u00e4r framf\u00f6rallt m\u00e5lare i<\/li><\/ul>","title":"Scaramouche"}},{"geometry":{"type":"Point","coordinates":[12.97677071,55.577971707]},"type":"Feature","id":"k1280\/161","properties":{"image":null,"popupContent":"<ul><li> <b>Tv\u00e5 kvinnor<\/b><\/li><li> Hassan Heshmat - 1975<\/li><li> Malm\u00f6 kommun (Hyllie) - Mob\u00e4cksgatan 11\u201325<\/li><\/ul>","title":"Tv\u00e5 kvinnor"}},{"geometry":{"type":"Point","coordinates":[13.0609659733,55.5779877337]},"type":"Feature","id":"k1280\/275","properties":{"image":null,"popupContent":"<ul><li> <b>Rymdskott<\/b><\/li><li> Stig Carlsson - 1972<\/li><li> Malm\u00f6 kommun (Husie) - Almg\u00e5rden, Agnesfridsv\u00e4gen<\/li><\/ul>","title":"Rymdskott"}},{"geometry":{"type":"Point","coordinates":[13.0180977545,55.5785797031]},"type":"Feature","id":"k1280\/176","properties":{"image":null,"popupContent":"<ul><li> <b>Tj\u00e4derspel<\/b><\/li><li> <a href=\"https:\/\/sv.wikipedia.org\/wiki\/Inga_Bagge\" target=\"_blank\">Inga Bagge<\/a> - 1966<\/li><li> Malm\u00f6 kommun (Fosie) - Munkh\u00e4ttegatan 3<\/li><\/ul>","title":"Tj\u00e4derspel"}},{"geometry":{"type":"Point","coordinates":[13.0192080596,55.57896113]},"type":"Feature","id":"k1280\/175","properties":{"image":null,"popupContent":"<ul><li> <b>Mor och barn<\/b><\/li><li> <a href=\"https:\/\/sv.wikipedia.org\/wiki\/Lennart_K%C3%A4llstr%C3%B6m\" target=\"_blank\">Lennart K\u00e4llstr\u00f6m<\/a> - 1965<\/li><li> Malm\u00f6 kommun (Fosie) - Heleneholmsskolan, Munkh\u00e4ttegatan 1<\/li><\/ul>","title":"Mor och barn"}},{"geometry":{"type":"Point","coordinates":[13.0232008149,55.5790430098]},"type":"Feature","id":"k1280\/171","properties":{"image":null,"popupContent":"<ul><li> <b>J\u00e4tte\u00f6dlan Augusta<\/b><\/li><li> <a href=\"https:\/\/sv.wikipedia.org\/wiki\/Gunnar_Frieberg\" target=\"_blank\">Gunnar Frieberg<\/a> - 1991<\/li><li> Malm\u00f6 kommun (Fosie) - Augustenborgskolan, Ystadv\u00e4gen 50<\/li><\/ul>","title":"J\u00e4tte\u00f6dlan Augusta"}},{"geometry":{"type":"Point","coordinates":[12.9954386269,55.5797689459]},"type":"Feature","id":"k1280\/146","properties":{"image":null,"popupContent":"<ul><li> <b>Dansen<\/b><\/li><li> <a href=\"https:\/\/sv.wikipedia.org\/wiki\/Stig_Blomberg\" target=\"_blank\">Stig Blomberg<\/a> - 1967<\/li><li> Malm\u00f6 kommun (Hyllie) - Arkitektgatan 31<\/li><\/ul>","title":"Dansen"}},{"geometry":{"type":"Point","coordinates":[13.0320127668,55.5799810072]},"type":"Feature","id":"k1280\/239","properties":{"image":null,"popupContent":"<ul><li> <b>Font\u00e4nkar<\/b><\/li><li> <a href=\"https:\/\/sv.wikipedia.org\/wiki\/Thure_Th%C3%B6rn\" target=\"_blank\">Thure Th\u00f6rn<\/a> - 1955<\/li><li> Malm\u00f6 kommun (Roseng\u00e5rd) - Persborgstorget<\/li><\/ul>","title":"Font\u00e4nkar"}},{"geometry":{"type":"Point","coordinates":[13.0560818233,55.5801865618]},"type":"Feature","id":"k1280\/280","properties":{"image":null,"popupContent":"<ul><li> <b>Livstr\u00e4det<\/b><\/li><li> <a href=\"https:\/\/sv.wikipedia.org\/wiki\/Per-Erik_Will%C3%B6\" target=\"_blank\">Per-Erik Will\u00f6<\/a> - 1984<\/li><li> Malm\u00f6 kommun (Husie) - Minneslunden, V\u00e4stra Skr\u00e4vlinge kyrkog\u00e5rd<\/li><\/ul>","title":"Livstr\u00e4det"}},{"geometry":{"type":"Point","coordinates":[13.0246035655,55.5807236147]},"type":"Feature","id":"k1280\/170","properties":{"image":null,"popupContent":"<ul><li> <b>Droppkrona<\/b><\/li><li> <a href=\"https:\/\/sv.wikipedia.org\/wiki\/Christian_Partos\" target=\"_blank\">Christian Partos<\/a> - 1994<\/li><li> Malm\u00f6 kommun (Fosie) - Augustenborgstorget<\/li><\/ul>","title":"Droppkrona"}},{"geometry":{"type":"Point","coordinates":[13.0512053681,55.5812458489]},"type":"Feature","id":"k1280\/253","properties":{"image":null,"popupContent":"<ul><li> <b>Afrodite<\/b><\/li><li> <a href=\"https:\/\/sv.wikipedia.org\/wiki\/Thure_Th%C3%B6rn\" target=\"_blank\">Thure Th\u00f6rn<\/a> - 1972<\/li><li> Malm\u00f6 kommun (Roseng\u00e5rd) - Ramels v\u00e4g 119<\/li><\/ul>","title":"Afrodite"}},{"geometry":{"type":"Point","coordinates":[12.97673228,55.581302]},"type":"Feature","id":"k1280\/916b","properties":{"image":null,"popupContent":"<ul><li> <b>Utan titel (nr 5 av 5 portr\u00e4tt)<\/b><\/li><li> Elin Alvemark - 2013<\/li><li> Malm\u00f6 kommun (V\u00e4stra Innerstaden) - Svansj\u00f6gatan 9, Bellevueg\u00e5rdens bibliotek<\/li><\/ul>","title":"Utan titel (nr 5 av 5 portr\u00e4tt)"}},{"geometry":{"type":"Point","coordinates":[12.93251093,55.58157984]},"type":"Feature","id":"k1280\/916a","properties":{"image":null,"popupContent":"<ul><li> <b>Utan titel (nr 2 av 5 portr\u00e4tt)<\/b><\/li><li> Elin Alvemark - 2013<\/li><li> Malm\u00f6 kommun (Limhamn-Bunkeflo) - Linn\u00e9gatan 41, Limhamns bibliotek <\/li><\/ul>","title":"Utan titel (nr 2 av 5 portr\u00e4tt)"}},{"geometry":{"type":"Point","coordinates":[12.9952987183,55.5817758678]},"type":"Feature","id":"k1280\/147","properties":{"image":null,"popupContent":"<ul><li> <b>Pojke lyftande sten<\/b><\/li><li> <a href=\"https:\/\/sv.wikipedia.org\/wiki\/Wive_Larsson\" target=\"_blank\">Wive Larsson<\/a> - 1974<\/li><li> Malm\u00f6 kommun (Hyllie) - Albinsrogatan 24<\/li><\/ul>","title":"Pojke lyftande sten"}},{"geometry":{"type":"Point","coordinates":[13.0797206397,55.5818435246]},"type":"Feature","id":"k1280\/279","properties":{"image":null,"popupContent":"<ul><li> <b>Spejare<\/b><\/li><li> <a href=\"https:\/\/sv.wikipedia.org\/wiki\/Annika_Svenbro\" target=\"_blank\">Annika Svenbro<\/a> - 1999<\/li><li> Malm\u00f6 kommun (Husie) - Sm\u00e5folksgatan 43<\/li><\/ul>","title":"Spejare"}},{"geometry":{"type":"Point","coordinates":[13.0803897562,55.5819962657]},"type":"Feature","id":"k1280\/277","properties":{"image":null,"popupContent":"<ul><li> <b>Sarons lilja<\/b><\/li><li> <a href=\"https:\/\/sv.wikipedia.org\/wiki\/Annika_Svenbro\" target=\"_blank\">Annika Svenbro<\/a> - 1999<\/li><li> Malm\u00f6 kommun (Husie) - Sm\u00e5folksgatan 41<\/li><\/ul>","title":"Sarons lilja"}},{"geometry":{"type":"Point","coordinates":[13.0471775346,55.5820109526]},"type":"Feature","id":"k1280\/254","properties":{"image":null,"popupContent":"<ul><li> <b>I r\u00f6relse<\/b><\/li><li> \u00c5ke Tornblad - 1973<\/li><li> Malm\u00f6 kommun (Roseng\u00e5rd) - Roseng\u00e5rdsskolan, Tornerhj\u00e4lms v\u00e4g<\/li><\/ul>","title":"I r\u00f6relse"}},{"geometry":{"type":"Point","coordinates":[13.0795137069,55.5820512886]},"type":"Feature","id":"k1280\/278","properties":{"image":null,"popupContent":"<ul><li> <b>Spiran<\/b><\/li><li> <a href=\"https:\/\/sv.wikipedia.org\/wiki\/Annika_Svenbro\" target=\"_blank\">Annika Svenbro<\/a> - 1999<\/li><li> Malm\u00f6 kommun (Husie) - Sm\u00e5folksgatan 37<\/li><\/ul>","title":"Spiran"}},{"geometry":{"type":"Point","coordinates":[12.9785289951,55.5821288394]},"type":"Feature","id":"k1280\/157","properties":{"image":null,"popupContent":"<ul><li> <b>Arc<\/b><\/li><li> Sten Ove Persson - 1993<\/li><li> Malm\u00f6 kommun (Hyllie) - Lorensborgsgatan mellan \u00c4rthomsv\u00e4gen och Stadiongatan<\/li><\/ul>","title":"Arc"}},{"geometry":{"type":"Point","coordinates":[12.996910001,55.5823910263]},"type":"Feature","id":"k1280\/150","properties":{"image":null,"popupContent":"<ul><li> <b>Fj\u00e4rde relationen<\/b><\/li><li> Marie Lindstr\u00f6m - 1989<\/li><li> Malm\u00f6 kommun (Hyllie) - Albinsrogatan 3<\/li><\/ul>","title":"Fj\u00e4rde relationen"}},{"geometry":{"type":"Point","coordinates":[13.0402140708,55.5825567468]},"type":"Feature","id":"k1280\/252","properties":{"image":null,"popupContent":"<ul><li> <b>Munnar<\/b><\/li><li> Birgitta Stenberg Hult\u00e9n - 1970<\/li><li> Malm\u00f6 kommun (Roseng\u00e5rd) - af Klintebergs v\u00e4g\/Adlerfelts v\u00e4g<\/li><\/ul>","title":"Munnar"}},{"geometry":{"type":"Point","coordinates":[12.9268656732,55.582594255]},"type":"Feature","id":"k1280\/133","properties":{"image":null,"popupContent":"<ul><li> <b>Familjen<\/b><\/li><li> <a href=\"https:\/\/sv.wikipedia.org\/wiki\/Thure_Th%C3%B6rn\" target=\"_blank\">Thure Th\u00f6rn<\/a> - 1962<\/li><li> Malm\u00f6 kommun (Limhamn-Bunkeflo) - Limhamns torg<\/li><\/ul>","title":"Familjen"}},{"geometry":{"type":"Point","coordinates":[13.01478062,55.58278281]},"type":"Feature","id":"k1280\/216B","properties":{"image":null,"popupContent":"<ul><li> <b>Utan titel<\/b><\/li><li> Mosaika - 2008<\/li><li> Malm\u00f6 kommun (S\u00f6dra Innerstaden) - Sevedsplan<\/li><\/ul>","title":"Utan titel"}},{"geometry":{"type":"Point","coordinates":[13.01478062,55.58278281]},"type":"Feature","id":"k1280\/216C","properties":{"image":null,"popupContent":"<ul><li> <b>Utan titel<\/b><\/li><li> Mosaika - 2007<\/li><li> Malm\u00f6 kommun (S\u00f6dra Innerstaden) - Jespersgatan 13-15 n\u00e4ra Sevedsplan<\/li><\/ul>","title":"Utan titel"}},{"geometry":{"type":"Point","coordinates":[12.9279835025,55.5828199862]},"type":"Feature","id":"k1280\/136","properties":{"image":null,"popupContent":"<ul><li> <b>Vattenkristaller<\/b><\/li><li> <a href=\"https:\/\/sv.wikipedia.org\/wiki\/Edvin_%C3%96hrstr%C3%B6m\" target=\"_blank\">Edvin \u00d6hrstr\u00f6m<\/a> - 1970<\/li><li> Malm\u00f6 kommun (Limhamn-Bunkeflo) - Limhamns torg<\/li><\/ul>","title":"Vattenkristaller"}},{"geometry":{"type":"Point","coordinates":[12.92730105,55.58293626]},"type":"Feature","id":"k1280\/137","properties":{"image":null,"popupContent":"<ul><li> <b>Tufsen<\/b><\/li><li> <a href=\"https:\/\/sv.wikipedia.org\/wiki\/Egon_M%C3%B6ller-Nielsen\" target=\"_blank\">Egon M\u00f6ller-Nielsen<\/a> - 2002<\/li><li> Malm\u00f6 kommun (Limhamn-Bunkeflo) - Limhamns torg, lekplatsen<\/li><\/ul>","title":"Tufsen"}},{"geometry":{"type":"Point","coordinates":[12.92170235,55.58309224]},"type":"Feature","id":"k1280\/135","properties":{"image":null,"popupContent":"<ul><li> <b>Rudolf Fredrik Berg<\/b><\/li><li> <a href=\"https:\/\/sv.wikipedia.org\/wiki\/Edvard_Trulsson\" target=\"_blank\">Edvard Trulsson<\/a> - 1940<\/li><li> Malm\u00f6 kommun (Limhamn-Bunkeflo) - Mitt emot Strandgatan 40<\/li><\/ul>","title":"Rudolf Fredrik Berg"}},{"geometry":{"type":"Point","coordinates":[13.0395154582,55.5831481093]},"type":"Feature","id":"k1280\/247","properties":{"image":null,"popupContent":"<ul><li> <b>Blommor och bin II<\/b><\/li><li> <a href=\"https:\/\/sv.wikipedia.org\/wiki\/Ulf_Sucksdorff\" target=\"_blank\">Ulf Sucksdorff<\/a> - 1969<\/li><li> Malm\u00f6 kommun (Roseng\u00e5rd) - H\u00e5rds v\u00e4g 99<\/li><\/ul>","title":"Blommor och bin II"}},{"geometry":{"type":"Point","coordinates":[13.0384039225,55.5833718947]},"type":"Feature","id":"k1280\/246","properties":{"image":null,"popupContent":"<ul><li> <b>Blommor och bin I<\/b><\/li><li> <a href=\"https:\/\/sv.wikipedia.org\/wiki\/Ulf_Sucksdorff\" target=\"_blank\">Ulf Sucksdorff<\/a> - 1969<\/li><li> Malm\u00f6 kommun (Roseng\u00e5rd) - H\u00e5rds v\u00e4g 83<\/li><\/ul>","title":"Blommor och bin I"}},{"geometry":{"type":"Point","coordinates":[13.0371187511,55.5834593855]},"type":"Feature","id":"k1280\/240","properties":{"image":null,"popupContent":"<ul><li> <b>Trio<\/b><\/li><li> Jan Harry Persson - 1968<\/li><li> Malm\u00f6 kommun (Roseng\u00e5rd) - af Klintebergs v\u00e4g\/ Stael von Holstens v\u00e4g<\/li><\/ul>","title":"Trio"}},{"geometry":{"type":"Point","coordinates":[13.0354446173,55.5840995547]},"type":"Feature","id":"k1280\/240d","properties":{"image":null,"popupContent":"<ul><li> <b>Utsmyckningar vid g\u00e5rdsentr\u00e9er<\/b><\/li><li> Jos\u00e9 Gordillo - 1992<\/li><li> Malm\u00f6 kommun (Roseng\u00e5rd) - H\u00e5rds v\u00e4g<\/li><\/ul>","title":"Utsmyckningar vid g\u00e5rdsentr\u00e9er"}},{"geometry":{"type":"Point","coordinates":[13.00639426,55.58411506]},"type":"Feature","id":"k1280\/212B","properties":{"image":null,"popupContent":"<ul><li> <b>Utan titel<\/b><\/li><li> <i>Ok\u00e4nd konstn\u00e4r<\/i> - 1950<\/li><li> Malm\u00f6 kommun (S\u00f6dra Innerstaden) - P\u00e5 fasad i kv. Bohus 5 vid Dalaplan, Trelleborgsv\u00e4gen 1<\/li><\/ul>","title":"Utan titel"}},{"geometry":{"type":"Point","coordinates":[13.00611512,55.58457487]},"type":"Feature","id":"k1280\/910","properties":{"image":null,"popupContent":"<ul><li> <b>Dalaplan Remixed<\/b><\/li><li> Karolina Erlingsson - 2013<\/li><li> Malm\u00f6 kommun (S\u00f6dra Innerstaden) - Dalaplan g\u00e5ngtunnel<\/li><\/ul>","title":"Dalaplan Remixed"}},{"geometry":{"type":"Point","coordinates":[12.9812074885,55.5845880924]},"type":"Feature","id":"k1280\/154","properties":{"image":null,"popupContent":"<ul><li> <b>Sf\u00e4r<\/b><\/li><li> <a href=\"https:\/\/sv.wikipedia.org\/wiki\/Arne_Jones\" target=\"_blank\">Arne Jones<\/a> - 1961<\/li><li> Malm\u00f6 kommun (Hyllie) - Lorensborgsgatan\/Vendelsfridsgatan<\/li><\/ul>","title":"Sf\u00e4r"}},{"geometry":{"type":"Point","coordinates":[12.9885096973,55.5848159275]},"type":"Feature","id":"k1280\/152B","properties":{"image":null,"popupContent":"<ul><li> <b>Idrottens hall of fame<\/b><\/li><li> Caroline M\u00e5rtensson - 2009<\/li><li> Malm\u00f6 kommun (Centrum) - Stadiontorget<\/li><\/ul>","title":"Idrottens hall of fame"}},{"geometry":{"type":"Point","coordinates":[13.01741013,55.58501936]},"type":"Feature","id":"k1280\/916c","properties":{"image":null,"popupContent":"<ul><li> <b>Utan titel (nr 3 av 5 portr\u00e4tt)<\/b><\/li><li> Elin Alvemark - 2013<\/li><li> Malm\u00f6 kommun (Centrum) - L\u00f6nngatan 30, Garagets bibliotek<\/li><\/ul>","title":"Utan titel (nr 3 av 5 portr\u00e4tt)"}},{"geometry":{"type":"Point","coordinates":[13.0381254902,55.5851930382]},"type":"Feature","id":"k1280\/245","properties":{"image":null,"popupContent":"<ul><li> <b>Figurer i Roseng\u00e5rd<\/b><\/li><li> <a href=\"https:\/\/sv.wikipedia.org\/wiki\/Berto_Marklund\" target=\"_blank\">Berto Marklund<\/a> - 1968<\/li><li> Malm\u00f6 kommun (Roseng\u00e5rd) - H\u00e5rds v\u00e4g 26 \u2013 42<\/li><\/ul>","title":"Figurer i Roseng\u00e5rd"}},{"geometry":{"type":"Point","coordinates":[13.0031481342,55.5852342327]},"type":"Feature","id":"k1280\/212","properties":{"image":null,"popupContent":"<ul><li> <b>Inf\u00f6r en ny v\u00e4rld<\/b><\/li><li> <a href=\"https:\/\/sv.wikipedia.org\/wiki\/Gunnel_Frieberg\" target=\"_blank\">Gunnel Frieberg<\/a> - 1947<\/li><li> Malm\u00f6 kommun (S\u00f6dra Innerstaden) - Universitetssjukhuset MAS vid Barnkliniken<\/li><\/ul>","title":"Inf\u00f6r en ny v\u00e4rld"}},{"geometry":{"type":"Point","coordinates":[12.988833685,55.5852670118]},"type":"Feature","id":"k1280\/151","properties":{"image":null,"popupContent":"<ul><li> <b>Erik Persson (1898 \u20131984)<\/b><\/li><li> <a href=\"https:\/\/sv.wikipedia.org\/wiki\/Arne_Jones\" target=\"_blank\">Arne Jones<\/a> - 1975<\/li><li> Malm\u00f6 kommun (Hyllie) - Swedbank Stadion<\/li><\/ul>","title":"Erik Persson (1898 \u20131984)"}},{"geometry":{"type":"Point","coordinates":[12.9885086899,55.5853690404]},"type":"Feature","id":"k1280\/152","properties":{"image":null,"popupContent":"<ul><li> <b>Utan titel<\/b><\/li><li> <a href=\"https:\/\/sv.wikipedia.org\/wiki\/C.O._Hult%C3%A9n\" target=\"_blank\">CO Hult\u00e9n<\/a> - 1958<\/li><li> Malm\u00f6 kommun (Hyllie) - Malm\u00f6 stadion, s\u00f6dra ing\u00e5ngen<\/li><\/ul>","title":"Utan titel"}},{"geometry":{"type":"Point","coordinates":[12.94433417,55.58542732]},"type":"Feature","id":"k1280\/141","properties":{"image":null,"popupContent":"<ul><li> <b>All v\u00e5r b\u00f6rjan<\/b><\/li><li> <a href=\"https:\/\/sv.wikipedia.org\/wiki\/Jonas_Fr%C3%B6ding\" target=\"_blank\">Jonas Fr\u00f6ding<\/a> - 1952<\/li><li> Malm\u00f6 kommun (Limhamn-Bunkeflo) - Gejersskolans entr\u00e9, V\u00e4stanv\u00e4g 48<\/li><\/ul>","title":"All v\u00e5r b\u00f6rjan"}},{"geometry":{"type":"Point","coordinates":[13.01586797,55.58569]},"type":"Feature","id":"k1280\/216D","properties":{"image":null,"popupContent":"<ul><li> <b>De fyra elementen<\/b><\/li><li> Natascha Pe\u00f1a - 2004<\/li><li> Malm\u00f6 kommun (S\u00f6dra Innerstaden) - Sofielunds Folkets Hus, Rolfsgatan 16<\/li><\/ul>","title":"De fyra elementen"}},{"geometry":{"type":"Point","coordinates":[12.9791238471,55.5858015422]},"type":"Feature","id":"k1280\/156","properties":{"image":null,"popupContent":"<ul><li> <b>Mor och barn<\/b><\/li><li> <a href=\"https:\/\/sv.wikipedia.org\/wiki\/Stig_Blomberg\" target=\"_blank\">Stig Blomberg<\/a> - 1963<\/li><li> Malm\u00f6 kommun (Hyllie) - Vendelsfridsgatan 11\u201313<\/li><\/ul>","title":"Mor och barn"}},{"geometry":{"type":"Point","coordinates":[12.9292578117,55.5858360134]},"type":"Feature","id":"k1280\/140","properties":{"image":null,"popupContent":"<ul><li> <b>Relation<\/b><\/li><li> Sten-Ove Persson - 1990<\/li><li> Malm\u00f6 kommun (Limhamn-Bunkeflo) - Limhamnsv\u00e4gen\/Kalkbrottsgatan<\/li><\/ul>","title":"Relation"}},{"geometry":{"type":"Point","coordinates":[12.996424606,55.5858849518]},"type":"Feature","id":"k1280\/148","properties":{"image":null,"popupContent":"<ul><li> <b>Akrobaterna<\/b><\/li><li> Karin Norelius - 1966<\/li><li> Malm\u00f6 kommun (Hyllie) - Annebergsgatan 9<\/li><\/ul>","title":"Akrobaterna"}},{"geometry":{"type":"Point","coordinates":[13.0010022499,55.5859545046]},"type":"Feature","id":"k1280\/213","properties":{"image":null,"popupContent":"<ul><li> <b>Tretakt<\/b><\/li><li> <a href=\"https:\/\/sv.wikipedia.org\/wiki\/Gunnel_Frieberg\" target=\"_blank\">Gunnel Frieberg<\/a> - 1967<\/li><li> Malm\u00f6 kommun (S\u00f6dra Innerstaden) - John Ericssons v\u00e4g 10, S\u00f6dra Sommarstadens f\u00f6rskola<\/li><\/ul>","title":"Tretakt"}},{"geometry":{"type":"Point","coordinates":[12.9297172082,55.5861004287]},"type":"Feature","id":"k1280\/138","properties":{"image":null,"popupContent":"<ul><li> <b>Megagram<\/b><\/li><li> Kenneth Croneland - 1990<\/li><li> Malm\u00f6 kommun (Limhamn-Bunkeflo) - Limhamnsv\u00e4gen\/Kalkbrottsgatan<\/li><\/ul>","title":"Megagram"}},{"geometry":{"type":"Point","coordinates":[13.04494297,55.58619343]},"type":"Feature","id":"k1280\/916d","properties":{"image":null,"popupContent":"<ul><li> <b>Utan titel (nr 4 av 5 portr\u00e4tt)<\/b><\/li><li> Elin Alvemark - 2013<\/li><li> Malm\u00f6 kommun (Roseng\u00e5rd) - Dicksons v\u00e4g 12, Roseng\u00e5rds centrum, Roseng\u00e5rds bibliotek<\/li><\/ul>","title":"Utan titel (nr 4 av 5 portr\u00e4tt)"}},{"geometry":{"type":"Point","coordinates":[13.0488507119,55.5862740791]},"type":"Feature","id":"k1280\/251","properties":{"image":null,"popupContent":"<ul><li> <b>Tre P\u00e5gar<\/b><\/li><li> <a href=\"https:\/\/sv.wikipedia.org\/wiki\/Barbro_B%C3%A4ckstr%C3%B6m\" target=\"_blank\">Barbro B\u00e4ckstr\u00f6m<\/a> - 1997<\/li><li> Malm\u00f6 kommun (Roseng\u00e5rd) - von Troils v\u00e4g 1<\/li><\/ul>","title":"Tre P\u00e5gar"}},{"geometry":{"type":"Point","coordinates":[13.0334884439,55.5862839607]},"type":"Feature","id":"k1280\/242","properties":{"image":null,"popupContent":"<ul><li> <b>Urtidsm\u00e4nniskor<\/b><\/li><li> <a href=\"https:\/\/sv.wikipedia.org\/wiki\/Alf_Olsson\" target=\"_blank\">Alf Olsson<\/a> - 1964<\/li><li> Malm\u00f6 kommun (Roseng\u00e5rd) - Bennets v\u00e4g 15 (baksidan)<\/li><\/ul>","title":"Urtidsm\u00e4nniskor"}},{"geometry":{"type":"Point","coordinates":[13.05608942,55.58634307]},"type":"Feature","id":"k1280\/244B","properties":{"image":null,"popupContent":"<ul><li> <b>Hyllning till Andy Warhol<\/b><\/li><li> <i>Ok\u00e4nd konstn\u00e4r<\/i><\/li><li> Malm\u00f6 kommun (Roseng\u00e5rd) - Biltunnel Von Lingens v\u00e4g\/ Inre Ringv\u00e4gen<\/li><\/ul>","title":"Hyllning till Andy Warhol"}},{"geometry":{"type":"Point","coordinates":[13.0390293253,55.5863641078]},"type":"Feature","id":"k1280\/238","properties":{"image":null,"popupContent":"<ul><li> <b>Sf\u00e4riskt monument<\/b><\/li><li> Bertil Gad\u00f6 - 1969<\/li><li> Malm\u00f6 kommun (Roseng\u00e5rd) - Bennets v\u00e4g 48<\/li><\/ul>","title":"Sf\u00e4riskt monument"}},{"geometry":{"type":"Point","coordinates":[12.9991253776,55.5865404781]},"type":"Feature","id":"k1280\/149","properties":{"image":null,"popupContent":"<ul><li> <b>Spindeln\u00e4t<\/b><\/li><li> Johan Moritz, Bo Andersson (gatukontoret) - 2003<\/li><li> Malm\u00f6 kommun (Hyllie) - Rondellen John Ericssons v\u00e4g\/Pildammsv\u00e4gen<\/li><\/ul>","title":"Spindeln\u00e4t"}},{"geometry":{"type":"Point","coordinates":[13.0409066215,55.5867496549]},"type":"Feature","id":"k1280\/241","properties":{"image":null,"popupContent":"<ul><li> <b>Kropp<\/b><\/li><li> Jan Harry Persson - 1968<\/li><li> Malm\u00f6 kommun (Roseng\u00e5rd) - von Rosens v\u00e4g 14 \u201316<\/li><\/ul>","title":"Kropp"}},{"geometry":{"type":"Point","coordinates":[13.0414209676,55.5868412205]},"type":"Feature","id":"k1280\/248","properties":{"image":null,"popupContent":"<ul><li> <b>Astrofabel<\/b><\/li><li> Henrik B Andersen - 1987<\/li><li> Malm\u00f6 kommun (Roseng\u00e5rd) - Adlerfelts v\u00e4g 3<\/li><\/ul>","title":"Astrofabel"}},{"geometry":{"type":"Point","coordinates":[13.0331766246,55.5871690345]},"type":"Feature","id":"k1280\/236","properties":{"image":null,"popupContent":"<ul><li> <b>Skulpturgrupp<\/b><\/li><li> <a href=\"https:\/\/sv.wikipedia.org\/wiki\/C.O._Hult%C3%A9n\" target=\"_blank\">CO Hult\u00e9n<\/a> - 1966<\/li><li> Malm\u00f6 kommun (Roseng\u00e5rd) - Bennets v\u00e4g 11 (baksidan)<\/li><\/ul>","title":"Skulpturgrupp"}},{"geometry":{"type":"Point","coordinates":[13.01737066,55.5872362]},"type":"Feature","id":"k1280\/216","properties":{"image":null,"popupContent":"<ul><li> <b>F\u00f6rstoringsglaset<\/b><\/li><li> <a href=\"https:\/\/sv.wikipedia.org\/wiki\/Gustav_Nordahl\" target=\"_blank\">Gustaf Nordahl<\/a> - 1953<\/li><li> Malm\u00f6 kommun (S\u00f6dra Innerstaden) - Entr\u00e9n Sofielundsskolan, Rolfsgatan 8<\/li><\/ul>","title":"F\u00f6rstoringsglaset"}},{"geometry":{"type":"Point","coordinates":[13.03251929,55.58727396]},"type":"Feature","id":"k1280\/243C","properties":{"image":null,"popupContent":"<ul><li> <b>Reliefer<\/b><\/li><li> <a href=\"https:\/\/sv.wikipedia.org\/wiki\/J%C3%B6rgen_Fogelquist\" target=\"_blank\">J\u00f6rgen Fogelquist<\/a> - 1965<\/li><li> Malm\u00f6 kommun (Roseng\u00e5rd) - Bennets v\u00e4g 7<\/li><\/ul>","title":"Reliefer"}},{"geometry":{"type":"Point","coordinates":[13.0040740683,55.587299638]},"type":"Feature","id":"k1280\/207","properties":{"image":null,"popupContent":"<ul><li> <b>Hjortk\u00e4llan<\/b><\/li><li> <a href=\"https:\/\/sv.wikipedia.org\/wiki\/Thure_Th%C3%B6rn\" target=\"_blank\">Thure Th\u00f6rn<\/a> - 1956<\/li><li> Malm\u00f6 kommun (S\u00f6dra Innerstaden) - Universitetssjukhuset MAS, ing\u00e5ng 94. Har tidigare st\u00e5tt mellan Kvinnokliniken och blodcentralen.<\/li><\/ul>","title":"Hjortk\u00e4llan"}},{"geometry":{"type":"Point","coordinates":[13.0355678571,55.5873029653]},"type":"Feature","id":"k1280\/243","properties":{"image":null,"popupContent":"<ul><li> <b>Alla bor med varandra<\/b><\/li><li> Bj\u00f6rn Carnemalm - 2005<\/li><li> Malm\u00f6 kommun (Roseng\u00e5rd) - G\u00e5ng- och cykeltunneln under V\u00e4stra Kattarpsv\u00e4gen vid Bennets V\u00e4g<\/li><\/ul>","title":"Alla bor med varandra"}},{"geometry":{"type":"Point","coordinates":[13.03601189,55.58734534]},"type":"Feature","id":"k1280\/243B","properties":{"image":null,"popupContent":"<ul><li> <b>Zlatans leende<\/b><\/li><li> Bj\u00f6rn Carnemalm - 2006<\/li><li> Malm\u00f6 kommun (Roseng\u00e5rd) - I cykeltunnel d\u00e4r V\u00e4stra Kattarpsv\u00e4gen korsar Bennets v\u00e4g.<\/li><\/ul>","title":"Zlatans leende"}},{"geometry":{"type":"Point","coordinates":[13.03341341,55.58772943]},"type":"Feature","id":"k1280\/243D","properties":{"image":null,"popupContent":"<ul><li> <b>Utsmyckning vid entr\u00e9er<\/b><\/li><li> <a href=\"https:\/\/sv.wikipedia.org\/wiki\/Ulf_Trotzig\" target=\"_blank\">Ulf Trotzig<\/a> - 1964<\/li><li> Malm\u00f6 kommun (Roseng\u00e5rd) - Bennets v\u00e4g 6B<\/li><\/ul>","title":"Utsmyckning vid entr\u00e9er"}},{"geometry":{"type":"Point","coordinates":[12.9834757976,55.587838856]},"type":"Feature","id":"k1280\/155","properties":{"image":null,"popupContent":"<ul><li> <b>Engelsk bulldogg<\/b><\/li><li> <a href=\"https:\/\/sv.wikipedia.org\/wiki\/Edvin_%C3%96hrstr%C3%B6m\" target=\"_blank\">Edvin \u00d6hrstr\u00f6m<\/a> - 1959<\/li><li> Malm\u00f6 kommun (Hyllie) - Lorensborgsgatan 4<\/li><\/ul>","title":"Engelsk bulldogg"}},{"geometry":{"type":"Point","coordinates":[13.03645111,55.58797098]},"type":"Feature","id":"k1280\/237","properties":{"image":null,"popupContent":"<ul><li> <b>Graviterande element<\/b><\/li><li> Bertil Gad\u00f6 - 1969<\/li><li> Malm\u00f6 kommun (Roseng\u00e5rd) - V\u00e4stra Kattarpsv\u00e4gen 65<\/li><\/ul>","title":"Graviterande element"}},{"geometry":{"type":"Point","coordinates":[13.0501049094,55.5881516258]},"type":"Feature","id":"k1280\/255","properties":{"image":null,"popupContent":"<ul><li> <b>Sf\u00e4risk r\u00f6relse<\/b><\/li><li> <a href=\"https:\/\/sv.wikipedia.org\/wiki\/Folke_Truedsson\" target=\"_blank\">Folke Truedsson<\/a> - 1982<\/li><li> Malm\u00f6 kommun (Roseng\u00e5rd) - Stael von Holsteins v\u00e4g, vid Trekantens f\u00f6rskola<\/li><\/ul>","title":"Sf\u00e4risk r\u00f6relse"}},{"geometry":{"type":"Point","coordinates":[13.0037064309,55.5881812685]},"type":"Feature","id":"k1280\/205","properties":{"image":null,"popupContent":"<ul><li> <b>Pluvius<\/b><\/li><li> <a href=\"https:\/\/sv.wikipedia.org\/wiki\/Thure_Th%C3%B6rn\" target=\"_blank\">Thure Th\u00f6rn<\/a> - 1970<\/li><li> Malm\u00f6 kommun (S\u00f6dra Innerstaden) - Universitetsjukhuset MAS, Ortopediska klinikens g\u00e5rd<\/li><\/ul>","title":"Pluvius"}},{"geometry":{"type":"Point","coordinates":[13.0340099,55.58822329]},"type":"Feature","id":"k1280\/240C","properties":{"image":null,"popupContent":"<ul><li> <b>Reliefer vid entr\u00e9er<\/b><\/li><li> <a href=\"https:\/\/sv.wikipedia.org\/wiki\/Gunnar_Frieberg\" target=\"_blank\">Gunnar Frieberg<\/a> - 1965<\/li><li> Malm\u00f6 kommun (Roseng\u00e5rd) - Cronmans v\u00e4g 9<\/li><\/ul>","title":"Reliefer vid entr\u00e9er"}},{"geometry":{"type":"Point","coordinates":[13.0079416873,55.5882842054]},"type":"Feature","id":"k1280\/202","properties":{"image":null,"popupContent":"<ul><li> <b>Gl\u00e4djeb\u00e4gare<\/b><\/li><li> Karin Gullberg - 1999<\/li><li> Malm\u00f6 kommun (S\u00f6dra Innerstaden) - S\u00f6derv\u00e4rns bussterminal<\/li><\/ul>","title":"Gl\u00e4djeb\u00e4gare"}},{"geometry":{"type":"Point","coordinates":[13.0124073713,55.5883002475]},"type":"Feature","id":"k1280\/214","properties":{"image":null,"popupContent":"<ul><li> <b>Den helige Kristoffer som b\u00e4r Jesus<\/b><\/li><li> <a href=\"https:\/\/sv.wikipedia.org\/wiki\/Axel_Wallenberg_(skulpt%C3%B6r)\" target=\"_blank\">Axel Wallenberg<\/a> - 1963<\/li><li> Malm\u00f6 kommun (S\u00f6dra Innerstaden) - Sankta Maria kyrka, Nobelv\u00e4gen 20<\/li><\/ul>","title":"Den helige Kristoffer som b\u00e4r Jesus"}},{"geometry":{"type":"Point","coordinates":[12.9836985833,55.5883129707]},"type":"Feature","id":"k1280\/153a","properties":{"image":null,"popupContent":"<ul><li> <b>Laxtrappan<\/b><\/li><li> Einar Nettelbladt - 1960<\/li><li> Malm\u00f6 kommun (Hyllie) - Lorensborgstorget<\/li><\/ul>","title":"Laxtrappan"}},{"geometry":{"type":"Point","coordinates":[12.9836119484,55.5883282347]},"type":"Feature","id":"k1280\/153b","properties":{"image":null,"popupContent":"<ul><li> <b>Glada laxen<\/b><\/li><li> Carl Bertil Widell - 1997<\/li><li> Malm\u00f6 kommun (Hyllie) - Lorenzborgstorget i anslutning till Laxtrappan<\/li><\/ul>","title":"Glada laxen"}},{"geometry":{"type":"Point","coordinates":[13.03676339,55.58834671]},"type":"Feature","id":"k1280\/237B","properties":{"image":null,"popupContent":"<ul><li> <b>Ida hissar upp Emil f\u00f6r att visa honom v\u00e4rlden<\/b><\/li><li> Bj\u00f6rn Carnemalm - 2009<\/li><li> Malm\u00f6 kommun (Roseng\u00e5rd) - Korsningen V. Kattarpsv.\/Amiralsg.<\/li><\/ul>","title":"Ida hissar upp Emil f\u00f6r att visa honom v\u00e4rlden"}},{"geometry":{"type":"Point","coordinates":[13.0024448245,55.5884182229]},"type":"Feature","id":"k1280\/206","properties":{"image":null,"popupContent":"<ul><li> <b>Flickan och k\u00e4llan<\/b><\/li><li> Ivar \u00c5lenius-Bj\u00f6rk - 1963<\/li><li> Malm\u00f6 kommun (S\u00f6dra Innerstaden) - Universitetssjukhuset MAS, mellan Ortopediska och Medicinska kliniken<\/li><\/ul>","title":"Flickan och k\u00e4llan"}},{"geometry":{"type":"Point","coordinates":[13.03310451,55.58842122]},"type":"Feature","id":"k1280\/240B","properties":{"image":null,"popupContent":"<ul><li> <b>Glas och betong I, II, III<\/b><\/li><li> Jaques Zadig - 1964<\/li><li> Malm\u00f6 kommun (Roseng\u00e5rd) - H\u00e5rds v\u00e4g 10<\/li><\/ul>","title":"Glas och betong I, II, III"}},{"geometry":{"type":"Point","coordinates":[13.0013604032,55.588688939]},"type":"Feature","id":"k1280\/209","properties":{"image":null,"popupContent":"<ul><li> <b>Fritz Bauer<\/b><\/li><li> Gunnar Lybeck - 1959<\/li><li> Malm\u00f6 kommun (S\u00f6dra Innerstaden) - Universitetssjukhuset MAS, Medicinska kliniken<\/li><\/ul>","title":"Fritz Bauer"}},{"geometry":{"type":"Point","coordinates":[13.0044418402,55.5887599041]},"type":"Feature","id":"k1280\/203","properties":{"image":null,"popupContent":"<ul><li> <b>Flicka med f\u00e5gel<\/b><\/li><li> <a href=\"https:\/\/sv.wikipedia.org\/wiki\/Ivar_Johnsson\" target=\"_blank\">Ivar Johnsson<\/a> - 1963<\/li><li> Malm\u00f6 kommun (S\u00f6dra Innerstaden) - Universitetsjukhuset MAS, vid gamla entr\u00e9n mitt emot Ortopediska kliniken<\/li><\/ul>","title":"Flicka med f\u00e5gel"}},{"geometry":{"type":"Point","coordinates":[13.0051784867,55.5887628788]},"type":"Feature","id":"k1280\/204","properties":{"image":null,"popupContent":"<ul><li> <b>H\u00e4lsok\u00e4llan<\/b><\/li><li> <a href=\"https:\/\/sv.wikipedia.org\/wiki\/Anders_Olsson_(konstn%C3%A4r)\" target=\"_blank\">Anders Olsson<\/a> - 1914<\/li><li> Malm\u00f6 kommun (S\u00f6dra Innerstaden) - Universitetsjukhuset MAS, gamla entr\u00e9n<\/li><\/ul>","title":"H\u00e4lsok\u00e4llan"}},{"geometry":{"type":"Point","coordinates":[12.9930882836,55.5888011606]},"type":"Feature","id":"k1280\/099","properties":{"image":null,"popupContent":"<ul><li> <b>Margaretaflickan<\/b><\/li><li> Greta von Braun Giesenfeld - 1964<\/li><li> Malm\u00f6 kommun (V\u00e4stra Innerstaden) - Pildammsparken, Margaretapaviljongen<\/li><\/ul>","title":"Margaretaflickan"}},{"geometry":{"type":"Point","coordinates":[12.9223281846,55.5889167661]},"type":"Feature","id":"k1280\/139","properties":{"image":null,"popupContent":"<ul><li> <b>Murar<\/b><\/li><li> Pernilla Andersson - 1998<\/li><li> Malm\u00f6 kommun (Limhamn-Bunkeflo) - \u00d6n, Limhamn<\/li><\/ul>","title":"Murar"}},{"geometry":{"type":"Point","coordinates":[13.05525814,55.58892052]},"type":"Feature","id":"k1280\/244","properties":{"image":null,"popupContent":"<ul><li> <b>Tre ing\u00e5ngar till Roseng\u00e5rd<\/b><\/li><li> <a href=\"https:\/\/sv.wikipedia.org\/wiki\/Per_Hasselberg\" target=\"_blank\">Per Hasselberg<\/a> - 2003<\/li><li> Malm\u00f6 kommun (Roseng\u00e5rd) - G\u00e5ng- och cykeltunnlar under inre Ringv\u00e4gen,Ulricedalsg\u00e5rden, Voughts v\u00e4g, Wachtmeisters v\u00e4g (f\u00f6rl\u00e4ngning)<\/li><\/ul>","title":"Tre ing\u00e5ngar till Roseng\u00e5rd"}},{"geometry":{"type":"Point","coordinates":[13.0460147193,55.5889246367]},"type":"Feature","id":"k1280\/249","properties":{"image":null,"popupContent":"<ul><li> <b>Multiflora<\/b><\/li><li> <a href=\"https:\/\/sv.wikipedia.org\/wiki\/Eric_Grate\" target=\"_blank\">Eric Grate<\/a> - 1972<\/li><li> Malm\u00f6 kommun (Roseng\u00e5rd) - von Lingens v\u00e4g 64<\/li><\/ul>","title":"Multiflora"}},{"geometry":{"type":"Point","coordinates":[13.03630367,55.58898899]},"type":"Feature","id":"k1280\/250","properties":{"image":null,"popupContent":"<ul><li> <b>Ida<\/b><\/li><li> Inger Weichselbaumer - 2001<\/li><li> Malm\u00f6 kommun (Roseng\u00e5rd) - Amiralsgatan\/Scheelegatan<\/li><\/ul>","title":"Ida"}},{"geometry":{"type":"Point","coordinates":[12.9924141741,55.5891261282]},"type":"Feature","id":"k1280\/100","properties":{"image":null,"popupContent":"<ul><li> <b>Font\u00e4n<\/b><\/li><li> Britt Berntsson (Skapad av) - 1993<\/li><li> Malm\u00f6 kommun (V\u00e4stra Innerstaden) - Pildammsparken, Drottning Silvias rosentr\u00e4dg\u00e5rd<\/li><\/ul>","title":"Font\u00e4n"}},{"geometry":{"type":"Point","coordinates":[12.9933409713,55.5891303203]},"type":"Feature","id":"k1280\/098","properties":{"image":null,"popupContent":"<ul><li> <b>Kastanj<\/b><\/li><li> Bertil Nilsson - 1988<\/li><li> Malm\u00f6 kommun (V\u00e4stra Innerstaden) - Pildammsparken, \u00f6ster om kronprinsessan Margaretas blomstergata<\/li><\/ul>","title":"Kastanj"}},{"geometry":{"type":"Point","coordinates":[13.0014552094,55.5891796562]},"type":"Feature","id":"k1280\/208","properties":{"image":null,"popupContent":"<ul><li> <b>B\u00e4rarmolekyl<\/b><\/li><li> <a href=\"https:\/\/sv.wikipedia.org\/wiki\/Willy_Gordon\" target=\"_blank\">Willy Gordon<\/a> - 1980<\/li><li> Malm\u00f6 kommun (S\u00f6dra Innerstaden) - Universitetsjukhuset MAS, Kirurgiska kliniken<\/li><\/ul>","title":"B\u00e4rarmolekyl"}},{"geometry":{"type":"Point","coordinates":[13.0008409399,55.5892058999]},"type":"Feature","id":"k1280\/211","properties":{"image":null,"popupContent":"<ul><li> <b>Gap<\/b><\/li><li> <a href=\"https:\/\/sv.wikipedia.org\/wiki\/P%C3%A5l_Svensson\" target=\"_blank\">P\u00e5l Svensson<\/a> - 2003<\/li><li> Malm\u00f6 kommun (S\u00f6dra Innerstaden) - Universitetsjukhuset MAS, ing\u00e5ng 44<\/li><\/ul>","title":"Gap"}},{"geometry":{"type":"Point","coordinates":[13.0011845777,55.5892595739]},"type":"Feature","id":"k1280\/210","properties":{"image":null,"popupContent":"<ul><li> <b>Ormen mot skyn<\/b><\/li><li> Ebbe Sj\u00f6lin - 2003<\/li><li> Malm\u00f6 kommun (S\u00f6dra Innerstaden) - Universitetsjukhuset MAS, vid apoteket<\/li><\/ul>","title":"Ormen mot skyn"}},{"geometry":{"type":"Point","coordinates":[13.0112968432,55.5893121481]},"type":"Feature","id":"k1280\/215","properties":{"image":null,"popupContent":"<ul><li> <b>Stenbock<\/b><\/li><li> <a href=\"https:\/\/sv.wikipedia.org\/wiki\/Stig_Blomberg\" target=\"_blank\">Stig Blomberg<\/a> - 1965<\/li><li> Malm\u00f6 kommun (S\u00f6dra Innerstaden) - Bangatan 4<\/li><\/ul>","title":"Stenbock"}},{"geometry":{"type":"Point","coordinates":[13.06583824,55.58966173]},"type":"Feature","id":"k1280\/277B","properties":{"image":null,"popupContent":"<ul><li> <b>Bondg\u00e5rdsdjur<\/b><\/li><li> Bengt Johansson - 2003<\/li><li> Malm\u00f6 kommun (Husie) - Videdalsparken V\u00e4stra p\u00e5 lekplatsen, mellan Ripvidegatan och Videdalsstigen<\/li><\/ul>","title":"Bondg\u00e5rdsdjur"}},{"geometry":{"type":"Point","coordinates":[13.0050251047,55.5899111571]},"type":"Feature","id":"k1280\/061","properties":{"image":null,"popupContent":"<ul><li> <b>Urnor<\/b><\/li><li> Juan Carlos Peirone - 1991<\/li><li> Malm\u00f6 kommun (Centrum) - Carl Gustavs v\u00e4g 46<\/li><\/ul>","title":"Urnor"}},{"geometry":{"type":"Point","coordinates":[13.027147255,55.5899586662]},"type":"Feature","id":"k1280\/217","properties":{"image":null,"popupContent":"<ul><li> <b>Vattenranka<\/b><\/li><li> <a href=\"https:\/\/sv.wikipedia.org\/wiki\/Fred_%C3%85berg\" target=\"_blank\">Fred \u00c5berg<\/a> - 1989<\/li><li> Malm\u00f6 kommun (S\u00f6dra Innerstaden) - Baskem\u00f6llegatan 14<\/li><\/ul>","title":"Vattenranka"}},{"geometry":{"type":"Point","coordinates":[13.0151043762,55.5904281957]},"type":"Feature","id":"k1280\/230","properties":{"image":null,"popupContent":"<ul><li> <b>Blues tones<\/b><\/li><li> Johan Moritz, Bo Andersson (upphovsm\u00e4n) - 2004<\/li><li> Malm\u00f6 kommun (S\u00f6dra Innerstaden) - Falsterboplan mot Simrishamnsgatan<\/li><\/ul>","title":"Blues tones"}},{"geometry":{"type":"Point","coordinates":[12.9909418678,55.5904643731]},"type":"Feature","id":"k1280\/102","properties":{"image":null,"popupContent":"<ul><li> <b>Brunnskar<\/b><\/li><li> <a href=\"https:\/\/sv.wikipedia.org\/wiki\/Ferdinand_Boberg\" target=\"_blank\">Ferdinand Boberg<\/a> - 1914<\/li><li> Malm\u00f6 kommun (V\u00e4stra Innerstaden) - Pildammsparken, Baltiska v\u00e4gen<\/li><\/ul>","title":"Brunnskar"}},{"geometry":{"type":"Point","coordinates":[13.0292541617,55.5907768646]},"type":"Feature","id":"k1280\/219","properties":{"image":null,"popupContent":"<ul><li> <b>Bj\u00f6rn som f\u00e5ngar lax<\/b><\/li><li> Ivan von Tourtchaninoff - 1994<\/li><li> Malm\u00f6 kommun (S\u00f6dra Innerstaden) - Brantevikstorg<\/li><\/ul>","title":"Bj\u00f6rn som f\u00e5ngar lax"}},{"geometry":{"type":"Point","coordinates":[13.0058876075,55.5908053877]},"type":"Feature","id":"k1280\/062","properties":{"image":null,"popupContent":"<ul><li> <b>Sillagumma<\/b><\/li><li> <a href=\"https:\/\/sv.wikipedia.org\/wiki\/Gunnel_Frieberg\" target=\"_blank\">Gunnel Frieberg<\/a> - 1980<\/li><li> Malm\u00f6 kommun (Centrum) - S\u00f6dra Fisktorget<\/li><\/ul>","title":"Sillagumma"}},{"geometry":{"type":"Point","coordinates":[13.071295023,55.5909392076]},"type":"Feature","id":"k1280\/916","properties":{"image":null,"popupContent":"<ul><li> <b>Utan titel (1 av 5 portr\u00e4tt)<\/b><\/li><li> Elin Alvemark - 2013<\/li><li> Malm\u00f6 kommun (Husie) - Videdalsv\u00e4gen 13, Husie bibliotek<\/li><\/ul>","title":"Utan titel (1 av 5 portr\u00e4tt)"}},{"geometry":{"type":"Point","coordinates":[12.9921143195,55.5909763629]},"type":"Feature","id":"k1280\/097","properties":{"image":null,"popupContent":"<ul><li> <b>Tidens Genius<\/b><\/li><li> <a href=\"https:\/\/sv.wikipedia.org\/wiki\/Ivar_Johnsson\" target=\"_blank\">Ivar Johnsson<\/a> - 1929<\/li><li> Malm\u00f6 kommun (V\u00e4stra Innerstaden) - Pildammsparken, Baltiska v\u00e4gen<\/li><\/ul>","title":"Tidens Genius"}},{"geometry":{"type":"Point","coordinates":[13.05074415,55.59100751]},"type":"Feature","id":"k1280\/913","properties":{"image":null,"popupContent":"<ul><li> <b>V\u00e4gvisaren<\/b><\/li><li> Frida Skogh - 2013<\/li><li> Malm\u00f6 kommun (Roseng\u00e5rd) - \u00d6stra Kyrkog\u00e5rden \/ Kinesiska muren (thomsonsv\u00e4g 9)<\/li><\/ul>","title":"V\u00e4gvisaren"}},{"geometry":{"type":"Point","coordinates":[12.9908430158,55.5910801334]},"type":"Feature","id":"k1280\/101","properties":{"image":null,"popupContent":"<ul><li> <b>Ekotemplet<\/b><\/li><li> <a href=\"https:\/\/sv.wikipedia.org\/wiki\/Ferdinand_Boberg\" target=\"_blank\">Ferdinand Boberg<\/a> - 1914<\/li><li> Malm\u00f6 kommun (V\u00e4stra Innerstaden) - Pildammsparken, Margaretav\u00e4gen\/Baltiska v\u00e4gen<\/li><\/ul>","title":"Ekotemplet"}},{"geometry":{"type":"Point","coordinates":[12.9896565009,55.5913351426]},"type":"Feature","id":"k1280\/103","properties":{"image":null,"popupContent":"<ul><li> <b>Jimmis<\/b><\/li><li> Monica Gora - 1997<\/li><li> Malm\u00f6 kommun (V\u00e4stra Innerstaden) - Pildammsparken, Margaretav\u00e4gen<\/li><\/ul>","title":"Jimmis"}},{"geometry":{"type":"Point","coordinates":[13.0204590913,55.591526292]},"type":"Feature","id":"k1280\/218","properties":{"image":null,"popupContent":"<ul><li> <b>Hommage \u00e1 Axel Danielsson<\/b><\/li><li> <a href=\"https:\/\/sv.wikipedia.org\/wiki\/Willy_Gordon\" target=\"_blank\">Willy Gordon<\/a> - 1973<\/li><li> Malm\u00f6 kommun (S\u00f6dra Innerstaden) - Olof Palmes plats<\/li><\/ul>","title":"Hommage \u00e1 Axel Danielsson"}},{"geometry":{"type":"Point","coordinates":[12.9849470148,55.5915490766]},"type":"Feature","id":"k1280\/107","properties":{"image":null,"popupContent":"<ul><li> <b>Behag<\/b><\/li><li> <a href=\"https:\/\/sv.wikipedia.org\/wiki\/Anders_Olsson_(konstn%C3%A4r)\" target=\"_blank\">Anders Olsson<\/a> - 1930<\/li><li> Malm\u00f6 kommun (V\u00e4stra Innerstaden) - Ribev\u00e4gen 1 D<\/li><\/ul>","title":"Behag"}},{"geometry":{"type":"Point","coordinates":[12.9857305736,55.591582994]},"type":"Feature","id":"k1280\/104","properties":{"image":null,"popupContent":"<ul><li> <b>Kota<\/b><\/li><li> Rune S\u00e4ll - 1988<\/li><li> Malm\u00f6 kommun (V\u00e4stra Innerstaden) - Roskildev\u00e4gen 29 A<\/li><\/ul>","title":"Kota"}},{"geometry":{"type":"Point","coordinates":[12.9811541198,55.5917359926]},"type":"Feature","id":"k1280\/109","properties":{"image":null,"popupContent":"<ul><li> <b>Flicka med kattungar<\/b><\/li><li> Ivar \u00c5lenius-Bj\u00f6rk - 1958<\/li><li> Malm\u00f6 kommun (V\u00e4stra Innerstaden) - Dammfriskolans entr\u00e9<\/li><\/ul>","title":"Flicka med kattungar"}},{"geometry":{"type":"Point","coordinates":[13.0075020579,55.5917421554]},"type":"Feature","id":"k1280\/235","properties":{"image":null,"popupContent":"<ul><li> <b>Arbetets \u00e4ra<\/b><\/li><li> <a href=\"https:\/\/sv.wikipedia.org\/wiki\/Axel_Ebbe\" target=\"_blank\">Axel Ebbe<\/a> - 1930<\/li><li> Malm\u00f6 kommun (S\u00f6dra Innerstaden) - M\u00f6llev\u00e5ngstorget<\/li><\/ul>","title":"Arbetets \u00e4ra"}},{"geometry":{"type":"Point","coordinates":[13.0140059325,55.5918234331]},"type":"Feature","id":"k1280\/228","properties":{"image":null,"popupContent":"<ul><li> <b>Bubbla<\/b><\/li><li> Monica Gora - 2004<\/li><li> Malm\u00f6 kommun (S\u00f6dra Innerstaden) - Folkets park, lekplatsen<\/li><\/ul>","title":"Bubbla"}},{"geometry":{"type":"Point","coordinates":[12.9937204552,55.5918442062]},"type":"Feature","id":"k1280\/096","properties":{"image":null,"popupContent":"<ul><li> <b>Vattentrappa<\/b><\/li><li> Leif Ringsbo (upphovsman) - 1985<\/li><li> Malm\u00f6 kommun (V\u00e4stra Innerstaden) - Pildammsparken, Baltiska v\u00e4gen<\/li><\/ul>","title":"Vattentrappa"}},{"geometry":{"type":"Point","coordinates":[13.01363821,55.59194377]},"type":"Feature","id":"k1280\/225B","properties":{"image":null,"popupContent":"<ul><li> <b>Utan titel<\/b><\/li><li> Mosaika - 2008<\/li><li> Malm\u00f6 kommun (S\u00f6dra Innerstaden) - Folkets park p\u00e5 toalettens ytterfasad<\/li><\/ul>","title":"Utan titel"}},{"geometry":{"type":"Point","coordinates":[12.9845142857,55.5919518113]},"type":"Feature","id":"k1280\/111C","properties":{"image":null,"popupContent":"<ul><li> <b>utan titel<\/b><\/li><li> Jens Evald Hansen<\/li><li> Malm\u00f6 kommun (Centrum) - Kronborgsv\u00e4gen 20<\/li><\/ul>","title":"utan titel"}},{"geometry":{"type":"Point","coordinates":[13.0116402138,55.5920835865]},"type":"Feature","id":"k1280\/231","properties":{"image":null,"popupContent":"<ul><li> <b>Insideout<\/b><\/li><li> Johan Moritz, Bo Andersson (upphovsm\u00e4n) - 2004<\/li><li> Malm\u00f6 kommun (S\u00f6dra Innerstaden) - Rondellen Norra Parkgatan\/Kristianstadsgatan<\/li><\/ul>","title":"Insideout"}},{"geometry":{"type":"Point","coordinates":[12.9858027111,55.5920947362]},"type":"Feature","id":"k1280\/105","properties":{"image":null,"popupContent":"<ul><li> <b>Uppn\u00e5tt m\u00e5l<\/b><\/li><li> <a href=\"https:\/\/sv.wikipedia.org\/wiki\/Fred_%C3%85berg\" target=\"_blank\">Fred \u00c5berg<\/a> - 1988<\/li><li> Malm\u00f6 kommun (V\u00e4stra Innerstaden) - Roskildev\u00e4gen 27 H<\/li><\/ul>","title":"Uppn\u00e5tt m\u00e5l"}},{"geometry":{"type":"Point","coordinates":[12.9697916648,55.592135328]},"type":"Feature","id":"k1280\/129","properties":{"image":null,"popupContent":"<ul><li> <b>Sittande pojke<\/b><\/li><li> <a href=\"https:\/\/sv.wikipedia.org\/wiki\/Bror_Marklund\" target=\"_blank\">Bror Marklund<\/a> - 1971<\/li><li> Malm\u00f6 kommun (Limhamn-Bunkeflo) - John Ericssons v\u00e4g 85<\/li><\/ul>","title":"Sittande pojke"}},{"geometry":{"type":"Point","coordinates":[13.01182809,55.59216634]},"type":"Feature","id":"k1280\/231D","properties":{"image":null,"popupContent":"<ul><li> <b>Utan titel<\/b><\/li><li> <i>Ok\u00e4nd konstn\u00e4r<\/i> - 2010<\/li><li> Malm\u00f6 kommun (S\u00f6dra Innerstaden) - Kristianstadgatan, planket vid Folkets park<\/li><\/ul>","title":"Utan titel"}},{"geometry":{"type":"Point","coordinates":[12.96874971,55.59217696]},"type":"Feature","id":"k1280\/909","properties":{"image":null,"popupContent":"<ul><li> <b>Non-Family History<\/b><\/li><li> <a href=\"https:\/\/sv.wikipedia.org\/wiki\/Leif_Holmstrand\" target=\"_blank\">Leif Holmstrand<\/a> - 2013<\/li><li> Malm\u00f6 kommun (Limhamn-Bunkeflo) - I ett tr\u00e4d i Mellanhedsparken utmed John Ericssons v\u00e4g<\/li><\/ul>","title":"Non-Family History"}},{"geometry":{"type":"Point","coordinates":[13.0129932818,55.5924837294]},"type":"Feature","id":"k1280\/225","properties":{"image":null,"popupContent":"<ul><li> <b>Axel Danielsson (1863 \u2013 99)<\/b><\/li><li> <a href=\"https:\/\/sv.wikipedia.org\/wiki\/Sven_Anderson_(skulpt%C3%B6r)\" target=\"_blank\">Sven Andersson<\/a> - 1901<\/li><li> Malm\u00f6 kommun (S\u00f6dra Innerstaden) - Folkets park<\/li><\/ul>","title":"Axel Danielsson (1863 \u2013 99)"}},{"geometry":{"type":"Point","coordinates":[12.9856538278,55.5924909402]},"type":"Feature","id":"k1280\/111B","properties":{"image":null,"popupContent":"<ul><li> <b>Utan titel<\/b><\/li><li> <a href=\"https:\/\/sv.wikipedia.org\/wiki\/Alexius_Huber\" target=\"_blank\">Alexius Huber<\/a> - 1989<\/li><li> Malm\u00f6 kommun (Centrum) - Kronborgsv\u00e4gen 18<\/li><\/ul>","title":"Utan titel"}},{"geometry":{"type":"Point","coordinates":[12.9930021133,55.5925699543]},"type":"Feature","id":"k1280\/095","properties":{"image":null,"popupContent":"<ul><li> <b>Galatea<\/b><\/li><li> <a href=\"https:\/\/sv.wikipedia.org\/wiki\/Nils_M%C3%B6llerberg\" target=\"_blank\">Nils M\u00f6llerberg<\/a> - 1938<\/li><li> Malm\u00f6 kommun (V\u00e4stra Innerstaden) - Pildammsparken, Galateas hage<\/li><\/ul>","title":"Galatea"}},{"geometry":{"type":"Point","coordinates":[12.9940828058,55.5925895972]},"type":"Feature","id":"k1280\/094","properties":{"image":null,"popupContent":"<ul><li> <b>Strykj\u00e4rnet<\/b><\/li><li> Hiroshi Koyama - 1988<\/li><li> Malm\u00f6 kommun (V\u00e4stra Innerstaden) - Pildammsparken<\/li><\/ul>","title":"Strykj\u00e4rnet"}},{"geometry":{"type":"Point","coordinates":[13.0134552228,55.5925940664]},"type":"Feature","id":"k1280\/224","properties":{"image":null,"popupContent":"<ul><li> <b>Hjalmar Branting (1860 \u20131925)<\/b><\/li><li> Per Emil N\u00e4svall - 1949<\/li><li> Malm\u00f6 kommun (S\u00f6dra Innerstaden) - Folkets park<\/li><\/ul>","title":"Hjalmar Branting (1860 \u20131925)"}},{"geometry":{"type":"Point","coordinates":[13.0128384204,55.592693115]},"type":"Feature","id":"k1280\/227","properties":{"image":null,"popupContent":"<ul><li> <b>Najaden<\/b><\/li><li> <a href=\"https:\/\/sv.wikipedia.org\/wiki\/Edvard_Trulsson\" target=\"_blank\">Edvard Trulsson<\/a> - 1938<\/li><li> Malm\u00f6 kommun (S\u00f6dra Innerstaden) - Folkets park<\/li><\/ul>","title":"Najaden"}},{"geometry":{"type":"Point","coordinates":[12.9826334,55.5928386]},"type":"Feature","id":"k1280\/109C","properties":{"image":null,"popupContent":"<ul><li> <b>Livet p\u00e5 en pinne<\/b><\/li><li> <a href=\"https:\/\/sv.wikipedia.org\/wiki\/Bie_Norling\" target=\"_blank\">Bie Norling<\/a> - 2005<\/li><li> Malm\u00f6 kommun (V\u00e4stra Innerstaden) - Kors\u00f6rv\u00e4gen 3<\/li><\/ul>","title":"Livet p\u00e5 en pinne"}},{"geometry":{"type":"Point","coordinates":[12.97634324,55.59283929]},"type":"Feature","id":"k1280\/109B","properties":{"image":null,"popupContent":"<ul><li> <b>Keramikreliefer<\/b><\/li><li> <a href=\"https:\/\/sv.wikipedia.org\/wiki\/Thure_Th%C3%B6rn\" target=\"_blank\">Thure Th\u00f6rn<\/a> - 1952<\/li><li> Malm\u00f6 kommun (V\u00e4stra Innerstaden) - Kors\u00f6rv\u00e4gen 23 A och B<\/li><\/ul>","title":"Keramikreliefer"}},{"geometry":{"type":"Point","coordinates":[13.0130650379,55.5929397644]},"type":"Feature","id":"k1280\/226","properties":{"image":null,"popupContent":"<ul><li> <b>Olof Palme (1927\u2013 86)<\/b><\/li><li> <a href=\"https:\/\/sv.wikipedia.org\/wiki\/Willy_Gordon\" target=\"_blank\">Willy Gordon<\/a> - 1989<\/li><li> Malm\u00f6 kommun (S\u00f6dra Innerstaden) - Folkets park<\/li><\/ul>","title":"Olof Palme (1927\u2013 86)"}},{"geometry":{"type":"Point","coordinates":[13.0126231553,55.5931176503]},"type":"Feature","id":"k1280\/229","properties":{"image":null,"popupContent":"<ul><li> <b>Ljusparasiter<\/b><\/li><li> Susanne R\u00f6nnertz - 2004<\/li><li> Malm\u00f6 kommun (S\u00f6dra Innerstaden) - Folkets park, vid l\u00e5nga dammen<\/li><\/ul>","title":"Ljusparasiter"}},{"geometry":{"type":"Point","coordinates":[12.9945837671,55.5931401084]},"type":"Feature","id":"k1280\/093","properties":{"image":null,"popupContent":"<ul><li> <b>Le fruit Rouge<\/b><\/li><li> <a href=\"https:\/\/sv.wikipedia.org\/wiki\/Axel_Nordell\" target=\"_blank\">Axel Nordell<\/a> - 1972<\/li><li> Malm\u00f6 kommun (V\u00e4stra Innerstaden) - Pildammsparken, lekplatsen<\/li><\/ul>","title":"Le fruit Rouge"}},{"geometry":{"type":"Point","coordinates":[12.9894057546,55.5931910538]},"type":"Feature","id":"k1280\/106","properties":{"image":null,"popupContent":"<ul><li> <b>Systrarna<\/b><\/li><li> <a href=\"https:\/\/sv.wikipedia.org\/wiki\/Stig_Blomberg\" target=\"_blank\">Stig Blomberg<\/a> - 1949<\/li><li> Malm\u00f6 kommun (V\u00e4stra Innerstaden) - Roskildev\u00e4gen 17<\/li><\/ul>","title":"Systrarna"}},{"geometry":{"type":"Point","coordinates":[12.98660867,55.59321997]},"type":"Feature","id":"k1280\/111","properties":{"image":null,"popupContent":"<ul><li> <b>Sagoskeppet<\/b><\/li><li> <a href=\"https:\/\/sv.wikipedia.org\/wiki\/Elma_Oijens\" target=\"_blank\">Elma Oijens<\/a> - 1968<\/li><li> Malm\u00f6 kommun (V\u00e4stra Innerstaden) - K\u00f6penhamnsv\u00e4gen 2 (baksidan)<\/li><\/ul>","title":"Sagoskeppet"}},{"geometry":{"type":"Point","coordinates":[12.9873388696,55.5932252751]},"type":"Feature","id":"k1280\/110","properties":{"image":null,"popupContent":"<ul><li> <b>S\u00e4ckl\u00f6pningen<\/b><\/li><li> <a href=\"https:\/\/sv.wikipedia.org\/wiki\/Torolf_Engstr%C3%B6m\" target=\"_blank\">Torolf Engstr\u00f6m<\/a> - 1964<\/li><li> Malm\u00f6 kommun (V\u00e4stra Innerstaden) - Kronborgsskolans entr\u00e9<\/li><\/ul>","title":"S\u00e4ckl\u00f6pningen"}},{"geometry":{"type":"Point","coordinates":[12.98632116,55.59337389]},"type":"Feature","id":"k1280\/111D","properties":{"image":null,"popupContent":"<ul><li> <b>Utomhussymfoni<\/b><\/li><li> Elsa Bj\u00f6rk-Liselius - 1964<\/li><li> Malm\u00f6 kommun (V\u00e4stra Innerstaden) - K\u00f6penhamnsv\u00e4gen 2<\/li><\/ul>","title":"Utomhussymfoni"}},{"geometry":{"type":"Point","coordinates":[13.0450258112,55.5933986152]},"type":"Feature","id":"k1280\/257","properties":{"image":null,"popupContent":"<ul><li> <b>Monument<\/b><\/li><li> <i>Ok\u00e4nd konstn\u00e4r<\/i> - 1944<\/li><li> Malm\u00f6 kommun (Roseng\u00e5rd) - \u00d6stra kyrkog\u00e5rden, kvarter 4C<\/li><\/ul>","title":"Monument"}},{"geometry":{"type":"Point","coordinates":[13.0047637393,55.5934495771]},"type":"Feature","id":"k1280\/234","properties":{"image":null,"popupContent":"<ul><li> <b>Gustav M\u00f6ller (1884 \u20131970)<\/b><\/li><li> <a href=\"https:\/\/sv.wikipedia.org\/wiki\/Thure_Th%C3%B6rn\" target=\"_blank\">Thure Th\u00f6rn<\/a> - 1955<\/li><li> Malm\u00f6 kommun (S\u00f6dra Innerstaden) - S\u00f6dra F\u00f6rstadsgatan\/M\u00f6llev\u00e5ngsgatan<\/li><\/ul>","title":"Gustav M\u00f6ller (1884 \u20131970)"}},{"geometry":{"type":"Point","coordinates":[13.0290455235,55.5935377774]},"type":"Feature","id":"k1280\/220","properties":{"image":null,"popupContent":"<ul><li> <b>Pojke<\/b><\/li><li> <a href=\"https:\/\/sv.wikipedia.org\/wiki\/Lennart_K%C3%A4llstr%C3%B6m\" target=\"_blank\">Lennart K\u00e4llstr\u00f6m<\/a> - 1961<\/li><li> Malm\u00f6 kommun (S\u00f6dra Innerstaden) - Stenkulaskolan, \u00d6stra Farmv\u00e4gen 30<\/li><\/ul>","title":"Pojke"}},{"geometry":{"type":"Point","coordinates":[13.01362713,55.59356125]},"type":"Feature","id":"k1280\/908","properties":{"image":null,"popupContent":"<ul><li> <b>Uppl\u00e4\/\u00f6saren<\/b><\/li><li> Ossian Ekman, Mikael Syr\u00e9hn - 2013<\/li><li> Malm\u00f6 kommun (S\u00f6dra Innerstaden) - Folkets park bakom Moriskan<\/li><\/ul>","title":"Uppl\u00e4\/\u00f6saren"}},{"geometry":{"type":"Point","coordinates":[12.9478364825,55.5935741948]},"type":"Feature","id":"k1280\/127","properties":{"image":null,"popupContent":"<ul><li> <b>Riksvapenstenen<\/b><\/li><li> W. Weltz - 1896<\/li><li> Malm\u00f6 kommun (V\u00e4stra Innerstaden) - Limhamnsf\u00e4ltet<\/li><\/ul>","title":"Riksvapenstenen"}},{"geometry":{"type":"Point","coordinates":[12.9678486351,55.5935919801]},"type":"Feature","id":"k1280\/128","properties":{"image":null,"popupContent":"<ul><li> <b>Symfoni<\/b><\/li><li> <a href=\"https:\/\/sv.wikipedia.org\/wiki\/Anders_Olsson_(konstn%C3%A4r)\" target=\"_blank\">Anders Olsson<\/a> - 1959<\/li><li> Malm\u00f6 kommun (Limhamn-Bunkeflo) - K\u00f6penhamnsv\u00e4gen 48<\/li><\/ul>","title":"Symfoni"}},{"geometry":{"type":"Point","coordinates":[12.98787473,55.5939]},"type":"Feature","id":"k1280\/109f","properties":{"image":null,"popupContent":"<ul><li> <b>Keramikfigurer<\/b><\/li><li> <a href=\"https:\/\/sv.wikipedia.org\/wiki\/Thure_Th%C3%B6rn\" target=\"_blank\">Thure Th\u00f6rn<\/a> - 1955<\/li><li> Malm\u00f6 kommun (V\u00e4stra Innerstaden) - Kronborgsv\u00e4gen 7<\/li><\/ul>","title":"Keramikfigurer"}},{"geometry":{"type":"Point","coordinates":[12.9874280146,55.5942107122]},"type":"Feature","id":"k1280\/117","properties":{"image":null,"popupContent":"<ul><li> <b>En pojke<\/b><\/li><li> Sten Eriksson - 1956<\/li><li> Malm\u00f6 kommun (V\u00e4stra Innerstaden) - Edward Lindalsgatan 19<\/li><\/ul>","title":"En pojke"}},{"geometry":{"type":"Point","coordinates":[13.0138986328,55.5942422374]},"type":"Feature","id":"k1280\/223","properties":{"image":null,"popupContent":"<ul><li> <b>Per Albin Hansson (1885 \u20131946)<\/b><\/li><li> Per Emil N\u00e4svall - 1949<\/li><li> Malm\u00f6 kommun (S\u00f6dra Innerstaden) - Folkets park<\/li><\/ul>","title":"Per Albin Hansson (1885 \u20131946)"}},{"geometry":{"type":"Point","coordinates":[13.01563108,55.59435787]},"type":"Feature","id":"k1280\/232","properties":{"image":null,"popupContent":"<ul><li> <b>Utan titel<\/b><\/li><li> Carl-Harry St\u00e5lhane - 1995<\/li><li> Malm\u00f6 kommun (S\u00f6dra Innerstaden) - Placering. N\u00f6jesteatern, Falsterbogatan<\/li><\/ul>","title":"Utan titel"}},{"geometry":{"type":"Point","coordinates":[13.0004020948,55.5944248534]},"type":"Feature","id":"k1280\/058C","properties":{"image":null,"popupContent":"<ul><li> <b>Vardags Livets M\u00f6nster, Alla i en en i alla, Halo (s\u00f6dra uppg\u00e5ngen) Lotus (norra uppg\u00e5ngen)<\/b><\/li><li> <a href=\"https:\/\/sv.wikipedia.org\/wiki\/Gunilla_Klingberg\" target=\"_blank\">Gunilla Klingberg<\/a> - 2010<\/li><li> Malm\u00f6 kommun (Centrum) - Station Triangelns b\u00e4gge uppg\u00e5ngar<\/li><\/ul>","title":"Vardags Livets M\u00f6nster, Alla i en en i alla, Halo (s\u00f6dra uppg\u00e5ngen) Lotus (norra uppg\u00e5ngen)"}},{"geometry":{"type":"Point","coordinates":[13.0004583016,55.5944329866]},"type":"Feature","id":"k1280\/058B","properties":{"image":null,"popupContent":"<ul><li> <b>Sp\u00e5rsken<\/b><\/li><li> <a href=\"https:\/\/sv.wikipedia.org\/wiki\/Christian_Partos\" target=\"_blank\">Christian Partos<\/a> - 2010<\/li><li> Malm\u00f6 kommun (Centrum) - Citytunnelstation Triangeln, nere i stationsrummet<\/li><\/ul>","title":"Sp\u00e5rsken"}},{"geometry":{"type":"Point","coordinates":[13.0137941821,55.5945437105]},"type":"Feature","id":"k1280\/222","properties":{"image":null,"popupContent":"<ul><li> <b>Gustav M\u00f6ller (1884 \u20131970)<\/b><\/li><li> <a href=\"https:\/\/sv.wikipedia.org\/wiki\/Ivar_Johnsson\" target=\"_blank\">Ivar Johnsson<\/a> - 1952<\/li><li> Malm\u00f6 kommun (S\u00f6dra Innerstaden) - Folkets park<\/li><\/ul>","title":"Gustav M\u00f6ller (1884 \u20131970)"}},{"geometry":{"type":"Point","coordinates":[13.0136457596,55.5946553977]},"type":"Feature","id":"k1280\/222B","properties":{"image":null,"popupContent":"<ul><li> <b>Rosen<\/b><\/li><li> Jitka Svensson (landskapsarkitekt) - 2007<\/li><li> Malm\u00f6 kommun (S\u00f6dra Innerstaden) - Folkets park innan f\u00f6r stora entr\u00e9n vid Amiralsgatan\/ Stora Parkgatan<\/li><\/ul>","title":"Rosen"}},{"geometry":{"type":"Point","coordinates":[12.9972139628,55.5946998788]},"type":"Feature","id":"k1280\/092","properties":{"image":null,"popupContent":"<ul><li> <b>Carl Frick (1863 \u20131924)<\/b><\/li><li> <a href=\"https:\/\/sv.wikipedia.org\/wiki\/Axel_Ebbe\" target=\"_blank\">Axel Ebbe<\/a> - 1926<\/li><li> Malm\u00f6 kommun (V\u00e4stra Innerstaden) - Gamla Idrottsplatsen, Pildammsv\u00e4gen<\/li><\/ul>","title":"Carl Frick (1863 \u20131924)"}},{"geometry":{"type":"Point","coordinates":[12.9924981253,55.5947512324]},"type":"Feature","id":"k1280\/108","properties":{"image":null,"popupContent":"<ul><li> <b>Pomona<\/b><\/li><li> <a href=\"https:\/\/sv.wikipedia.org\/wiki\/Eric_Grate\" target=\"_blank\">Eric Grate<\/a> - 1925<\/li><li> Malm\u00f6 kommun (V\u00e4stra Innerstaden) - Roskildev\u00e4gen 7<\/li><\/ul>","title":"Pomona"}},{"geometry":{"type":"Point","coordinates":[13.006708771,55.5948457545]},"type":"Feature","id":"k1280\/064b","properties":{"image":null,"popupContent":"<ul><li> <b>Utan titel (keramikrelief)<\/b><\/li><li> S. Carlsson - 1960<\/li><li> Malm\u00f6 kommun (Centrum) - Friisgatan 18-20<\/li><\/ul>","title":"Utan titel (keramikrelief)"}},{"geometry":{"type":"Point","coordinates":[12.9618171496,55.5949764754]},"type":"Feature","id":"k1280\/123B","properties":{"image":null,"popupContent":"<ul><li> <b>Minnesm\u00e4rke \u00f6ver Eric Sigfrid Persson<\/b><\/li><li> Jan Bergfelt - 2008<\/li><li> Malm\u00f6 kommun (V\u00e4stra Innerstaden) - Glytt\u00e4ngen mellan Erikslustv\u00e4gen och Vikingagatan<\/li><\/ul>","title":"Minnesm\u00e4rke \u00f6ver Eric Sigfrid Persson"}},{"geometry":{"type":"Point","coordinates":[12.9972131473,55.5950737991]},"type":"Feature","id":"k1280\/091","properties":{"image":null,"popupContent":"<ul><li> <b>Per Henrik Ling (1776 \u20131839)<\/b><\/li><li> <a href=\"https:\/\/sv.wikipedia.org\/wiki\/Anders_J%C3%B6nsson_(skulpt%C3%B6r)\" target=\"_blank\">Anders J\u00f6nsson<\/a> - 1914<\/li><li> Malm\u00f6 kommun (V\u00e4stra Innerstaden) - Gamla Idrottsplatsen, Pildammsv\u00e4gen<\/li><\/ul>","title":"Per Henrik Ling (1776 \u20131839)"}},{"geometry":{"type":"Point","coordinates":[12.99872,55.59522]},"type":"Feature","id":"k1280\/058d","properties":{"image":null,"popupContent":"<ul><li> <b>Utan titel<\/b><\/li><li> <a href=\"https:\/\/sv.wikipedia.org\/wiki\/Ebba_Matz\" target=\"_blank\">Ebba Matz<\/a> - 2013<\/li><li> Malm\u00f6 kommun (Centrum) - Konsthallstorget, S:t Johannesgatan 7<\/li><\/ul>","title":"Utan titel"}},{"geometry":{"type":"Point","coordinates":[12.96110623,55.59526235]},"type":"Feature","id":"k1280\/914","properties":{"image":null,"popupContent":"<ul><li> <b>Henafrodit<\/b><\/li><li> Fredrik Holst - 2013<\/li><li> Malm\u00f6 kommun (V\u00e4stra Innerstaden) - Rondellen K\u00f6penhamnsv\u00e4gen Vikingagatan<\/li><\/ul>","title":"Henafrodit"}},{"geometry":{"type":"Point","coordinates":[13.0081611199,55.5953659211]},"type":"Feature","id":"k1280\/064","properties":{"image":null,"popupContent":"<ul><li> <b>Gr\u00e4vlingstrappan<\/b><\/li><li> <a href=\"https:\/\/sv.wikipedia.org\/wiki\/Ernst_Billgren\" target=\"_blank\">Ernst Billgren<\/a> - 1993<\/li><li> Malm\u00f6 kommun (Centrum) - Monbijougatan 4<\/li><\/ul>","title":"Gr\u00e4vlingstrappan"}},{"geometry":{"type":"Point","coordinates":[12.9519334104,55.5953832438]},"type":"Feature","id":"k1280\/126","properties":{"image":null,"popupContent":"<ul><li> <b>Minnessten. F\u00f6rsta flygningen \u00f6ver \u00d6resund<\/b><\/li><li> <i>Ok\u00e4nd konstn\u00e4r<\/i> - 1970<\/li><li> Malm\u00f6 kommun (V\u00e4stra Innerstaden) - Limhamnsf\u00e4ltet<\/li><\/ul>","title":"Minnessten. F\u00f6rsta flygningen \u00f6ver \u00d6resund"}},{"geometry":{"type":"Point","coordinates":[13.0162833508,55.5954642452]},"type":"Feature","id":"k1280\/233c","properties":{"image":null,"popupContent":"<ul><li> <b>Arbete\/utbildning<\/b><\/li><li> <i>Ok\u00e4nd konstn\u00e4r<\/i><\/li><li> Malm\u00f6 kommun (S\u00f6dra Innerstaden) - p\u00e5 ABFs hus p\u00e5 Sp\u00e5nehusv\u00e4gen 47<\/li><\/ul>","title":"Arbete\/utbildning"}},{"geometry":{"type":"Point","coordinates":[13.01605022,55.59547348]},"type":"Feature","id":"k1280\/233b","properties":{"image":null,"popupContent":"<ul><li> <b>Jag vill, jag kan, jag m\u00e5ste -Lyftet<\/b><\/li><li> <a href=\"https:\/\/sv.wikipedia.org\/wiki\/Fred_%C3%85berg\" target=\"_blank\">Fred \u00c5berg<\/a> - 2009<\/li><li> Malm\u00f6 kommun (S\u00f6dra Innerstaden) - utanf\u00f6r ABFs hus p\u00e5 Sp\u00e5nehusv\u00e4gen 47<\/li><\/ul>","title":"Jag vill, jag kan, jag m\u00e5ste -Lyftet"}},{"geometry":{"type":"Point","coordinates":[12.9981853708,55.5956933225]},"type":"Feature","id":"k1280\/058","properties":{"image":null,"popupContent":"<ul><li> <b>Spiraler\/temalekplats<\/b><\/li><li> Beatrice Hansson - 2003<\/li><li> Malm\u00f6 kommun (Centrum) - Magistratparken, lekplatsen<\/li><\/ul>","title":"Spiraler\/temalekplats"}},{"geometry":{"type":"Point","coordinates":[13.0242329698,55.5957908533]},"type":"Feature","id":"k1280\/221","properties":{"image":null,"popupContent":"<ul><li> <b>Don Quijote<\/b><\/li><li> <a href=\"https:\/\/sv.wikipedia.org\/wiki\/Palle_Pernevi\" target=\"_blank\">Palle Pernevi<\/a> - 1957<\/li><li> Malm\u00f6 kommun (S\u00f6dra Innerstaden) - Sorgenfriv\u00e4gen 27<\/li><\/ul>","title":"Don Quijote"}},{"geometry":{"type":"Point","coordinates":[13.04987598,55.59593221]},"type":"Feature","id":"k1280\/256","properties":{"image":null,"popupContent":"<ul><li> <b>Kretslopp<\/b><\/li><li> <a href=\"https:\/\/sv.wikipedia.org\/wiki\/Fred_%C3%85berg\" target=\"_blank\">Fred \u00c5berg<\/a> - 1990<\/li><li> Malm\u00f6 kommun (Roseng\u00e5rd) - \u00d6stra kyrkog\u00e5rden, Minneslunden<\/li><\/ul>","title":"Kretslopp"}},{"geometry":{"type":"Point","coordinates":[12.9942557289,55.5964101167]},"type":"Feature","id":"k1280\/090","properties":{"image":null,"popupContent":"<ul><li> <b>Vingen<\/b><\/li><li> <a href=\"https:\/\/sv.wikipedia.org\/wiki\/Carl_Fredrik_Reutersw%C3%A4rd\" target=\"_blank\">Carl Fredrik Reutersw\u00e4rd<\/a> - 1987<\/li><li> Malm\u00f6 kommun (V\u00e4stra Innerstaden) - Roskildev\u00e4gen 1 B<\/li><\/ul>","title":"Vingen"}},{"geometry":{"type":"Point","coordinates":[12.996517688,55.5966020294]},"type":"Feature","id":"k1280\/088","properties":{"image":null,"popupContent":"<ul><li> <b>Tragos<\/b><\/li><li> <a href=\"https:\/\/sv.wikipedia.org\/wiki\/Nils_Sj%C3%B6gren\" target=\"_blank\">Nils Sj\u00f6gren<\/a> - 1953<\/li><li> Malm\u00f6 kommun (V\u00e4stra Innerstaden) - Malm\u00f6 Opera och Musikteater, Fersens v\u00e4g<\/li><\/ul>","title":"Tragos"}},{"geometry":{"type":"Point","coordinates":[12.9980556462,55.5967719871]},"type":"Feature","id":"k1280\/057","properties":{"image":null,"popupContent":"<ul><li> <b>Sk\u00f6rd<\/b><\/li><li> <a href=\"https:\/\/sv.wikipedia.org\/wiki\/Ivar_Johnsson\" target=\"_blank\">Ivar Johnsson<\/a> - 1948<\/li><li> Malm\u00f6 kommun (Centrum) - Magistratparken<\/li><\/ul>","title":"Sk\u00f6rd"}},{"geometry":{"type":"Point","coordinates":[12.98872443,55.59685685]},"type":"Feature","id":"k1280\/112","properties":{"image":null,"popupContent":"<ul><li> <b>Apokalypsens Ryttare<\/b><\/li><li> <a href=\"https:\/\/sv.wikipedia.org\/wiki\/Bj%C3%B8rn_N%C3%B8rgaard\" target=\"_blank\">Bj\u00f8rn N\u00f8rgaard<\/a> - 1994<\/li><li> Malm\u00f6 kommun (V\u00e4stra Innerstaden) - F\u00e5gelbacksgatan 4 \u2013 6<\/li><\/ul>","title":"Apokalypsens Ryttare"}},{"geometry":{"type":"Point","coordinates":[13.000881113,55.596962801]},"type":"Feature","id":"k1280\/059","properties":{"image":null,"popupContent":"<ul><li> <b>Treenighet<\/b><\/li><li> <a href=\"https:\/\/sv.wikipedia.org\/wiki\/Bj%C3%B8rn_N%C3%B8rgaard\" target=\"_blank\">Bj\u00f8rn N\u00f8rgaard<\/a> - 1999<\/li><li> Malm\u00f6 kommun (Centrum) - Triangeln<\/li><\/ul>","title":"Treenighet"}},{"geometry":{"type":"Point","coordinates":[13.00119156,55.59696963]},"type":"Feature","id":"k1280\/918","properties":{"image":null,"popupContent":"<ul><li> <b>Time Out Out of Time<\/b><\/li><li> <a href=\"https:\/\/sv.wikipedia.org\/wiki\/Clay_Ketter\" target=\"_blank\">Clay Ketter<\/a> - 2013<\/li><li> Malm\u00f6 kommun (Centrum) - Triangeltorget<\/li><\/ul>","title":"Time Out Out of Time"}},{"geometry":{"type":"Point","coordinates":[12.9570979258,55.5971393101]},"type":"Feature","id":"k1280\/123","properties":{"image":null,"popupContent":"<ul><li> <b>Utan titel<\/b><\/li><li> <a href=\"https:\/\/sv.wikipedia.org\/wiki\/Sivert_Lindblom\" target=\"_blank\">Sivert Lindblom<\/a> - 2001<\/li><li> Malm\u00f6 kommun (V\u00e4stra Innerstaden) - Potatis\u00e5kern, Limhamnsv\u00e4gen\/K\u00f6penhamnsv\u00e4gen<\/li><\/ul>","title":"Utan titel"}},{"geometry":{"type":"Point","coordinates":[13.0054315244,55.5971439014]},"type":"Feature","id":"k1280\/065","properties":{"image":null,"popupContent":"<ul><li> <b>Arbetarhustru<\/b><\/li><li> <a href=\"https:\/\/sv.wikipedia.org\/wiki\/Elma_Oijens\" target=\"_blank\">Elma Oijens<\/a> - 1989<\/li><li> Malm\u00f6 kommun (Centrum) - F\u00f6reningsgatan 18<\/li><\/ul>","title":"Arbetarhustru"}},{"geometry":{"type":"Point","coordinates":[13.003775681,55.5971732306]},"type":"Feature","id":"k1280\/063","properties":{"image":null,"popupContent":"<ul><li> <b>Zodiaken<\/b><\/li><li> <a href=\"https:\/\/sv.wikipedia.org\/wiki\/Walter_Bengtsson\" target=\"_blank\">Walter Bengtsson<\/a> - 1989<\/li><li> Malm\u00f6 kommun (Centrum) - F\u00f6reningsgatan 15<\/li><\/ul>","title":"Zodiaken"}},{"geometry":{"type":"Point","coordinates":[13.0589383481,55.5974100737]},"type":"Feature","id":"k1280\/272","properties":{"image":null,"popupContent":"<ul><li> <b>Flygarmonument<\/b><\/li><li> F10 \u00c4ngelholm (Utf\u00f6rt av) - 1980<\/li><li> Malm\u00f6 kommun (Kirseberg) - F\u00f6re detta Bulltoftas Flygstation, p\u00e5 andra sidan Flygf\u00e4ltsv\u00e4gen<\/li><\/ul>","title":"Flygarmonument"}},{"geometry":{"type":"Point","coordinates":[13.0189430335,55.5974453707]},"type":"Feature","id":"k1280\/078","properties":{"image":null,"popupContent":"<ul><li> <b>\u00c5rstiderna<\/b><\/li><li> <a href=\"https:\/\/sv.wikipedia.org\/wiki\/Thure_Th%C3%B6rn\" target=\"_blank\">Thure Th\u00f6rn<\/a> - 1974<\/li><li> Malm\u00f6 kommun (Centrum) - Minneslunden S:t Pauli mellersta kyrkog\u00e5rd<\/li><\/ul>","title":"\u00c5rstiderna"}},{"geometry":{"type":"Point","coordinates":[13.0013519821,55.5974463349]},"type":"Feature","id":"k1280\/060","properties":{"image":{"thumb":"https:\/\/commons.wikimedia.org\/w\/thumb.php?f=Hartrappan_av_Bianca_Maria_Barmen,_Malm\u00f6.jpg&width=100","filename":"Hartrappan av Bianca Maria Barmen, Malm\u00f6.jpg"},"popupContent":"<a href=\"http:\/\/commons.wikimedia.org\/wiki\/File:Hartrappan_av_Bianca_Maria_Barmen,_Malm\u00f6.jpg\" target=\"_blank\"><img src=\"https:\/\/commons.wikimedia.org\/w\/thumb.php?f=Hartrappan_av_Bianca_Maria_Barmen,_Malm\u00f6.jpg&width=100\" class=\"thumb\" \/><\/a><ul><li> <b>Hartrappan<\/b><\/li><li> <a href=\"https:\/\/sv.wikipedia.org\/wiki\/Bianca_Maria_Barmen\" target=\"_blank\">Bianca Maria Barmen<\/a> - 1998<\/li><li> Malm\u00f6 kommun (Centrum) - S\u00f6dra F\u00f6rstadsgatan 36-38<\/li><\/ul><br clear=\"both\"\/>","title":"Hartrappan"}},{"geometry":{"type":"Point","coordinates":[12.99443684,55.59756075]},"type":"Feature","id":"k1280\/089","properties":{"image":null,"popupContent":"<ul><li> <b>Filmen 100 \u00e5r<\/b><\/li><li> <a href=\"https:\/\/sv.wikipedia.org\/wiki\/Christer_Bording\" target=\"_blank\">Christer Bording<\/a> - 1996<\/li><li> Malm\u00f6 kommun (V\u00e4stra Innerstaden) - Pilstorpsparken<\/li><\/ul>","title":"Filmen 100 \u00e5r"}},{"geometry":{"type":"Point","coordinates":[13.0099896067,55.5976928584]},"type":"Feature","id":"k1280\/233","properties":{"image":null,"popupContent":"<ul><li> <b>M\u00e5rten<\/b><\/li><li> <a href=\"https:\/\/sv.wikipedia.org\/wiki\/Liss_Eriksson\" target=\"_blank\">Liss Eriksson<\/a> - 1970<\/li><li> Malm\u00f6 kommun (S\u00f6dra Innerstaden) - Bergsgatan\/Amiralsgatan<\/li><\/ul>","title":"M\u00e5rten"}},{"geometry":{"type":"Point","coordinates":[12.98291119,55.59791285]},"type":"Feature","id":"k1280\/903","properties":{"image":null,"popupContent":"<ul><li> <b>Megafonkiosk Kronprinsen<\/b><\/li><li> Erik Sandelin, UNSWORN Industries - 2013<\/li><li> Malm\u00f6 kommun (V\u00e4stra Innerstaden) - Nils Persson plan vid Kronprinsen<\/li><\/ul>","title":"Megafonkiosk Kronprinsen"}},{"geometry":{"type":"Point","coordinates":[13.0067549279,55.5979828564]},"type":"Feature","id":"k1280\/066","properties":{"image":null,"popupContent":"<ul><li> <b>Bladomlopp<\/b><\/li><li> Vassil Simittchiev - 1985<\/li><li> Malm\u00f6 kommun (Centrum) - Bron vid Stadshuset<\/li><\/ul>","title":"Bladomlopp"}},{"geometry":{"type":"Point","coordinates":[13.0065931734,55.5980545113]},"type":"Feature","id":"k1280\/067","properties":{"image":null,"popupContent":"<ul><li> <b>P\u00e5 v\u00e4g<\/b><\/li><li> Niklas Hellberg - 1989<\/li><li> Malm\u00f6 kommun (Centrum) - Tunneln vid Stadshuset, under F\u00f6reningsgatan<\/li><\/ul>","title":"P\u00e5 v\u00e4g"}},{"geometry":{"type":"Point","coordinates":[13.0065578106,55.5980661355]},"type":"Feature","id":"k1280\/069","properties":{"image":null,"popupContent":"<ul><li> <b>Brolyftaren<\/b><\/li><li> Johan L\u00fcnn\u00e9r - 1985<\/li><li> Malm\u00f6 kommun (Centrum) - Tunneln vid Stadshuset under F\u00f6reningsgatan<\/li><\/ul>","title":"Brolyftaren"}},{"geometry":{"type":"Point","coordinates":[13.0073866283,55.5981080005]},"type":"Feature","id":"k1280\/070B","properties":{"image":null,"popupContent":"<ul><li> <b>Ljusets kalender<\/b><\/li><li> F\u00f6rskolebarn i samarbete med Gatukontoret<\/li><li> Malm\u00f6 kommun (Centrum) - Fasad stadshuset August palms plats 1<\/li><\/ul>","title":"Ljusets kalender"}},{"geometry":{"type":"Point","coordinates":[12.9893198287,55.5981464654]},"type":"Feature","id":"k1280\/114","properties":{"image":null,"popupContent":"<ul><li> <b>Treklang<\/b><\/li><li> Bertil Gad\u00f6 - 1986<\/li><li> Malm\u00f6 kommun (V\u00e4stra Innerstaden) - Carl Gustavs v\u00e4g 4<\/li><\/ul>","title":"Treklang"}},{"geometry":{"type":"Point","coordinates":[13.0067352066,55.5982018496]},"type":"Feature","id":"k1280\/068","properties":{"image":null,"popupContent":"<ul><li> <b>Tjenare David<\/b><\/li><li> Mauri Knuuti - 1989<\/li><li> Malm\u00f6 kommun (Centrum) - Tunneln vid Stadshuset, under F\u00f6reningsgatan<\/li><\/ul>","title":"Tjenare David"}},{"geometry":{"type":"Point","coordinates":[13.00021698,55.59828118]},"type":"Feature","id":"k1280\/056C","properties":{"image":null,"popupContent":"<ul><li> <b>De fallna \u00e4nglarnas brunn<\/b><\/li><li> Kenneth Croneland, Per L\u00f6fgren (upphovsm\u00e4n) - 2004<\/li><li> Malm\u00f6 kommun (Centrum) - Holmg\u00e5ngen, S. F\u00f6rstadsgatan 23<\/li><\/ul>","title":"De fallna \u00e4nglarnas brunn"}},{"geometry":{"type":"Point","coordinates":[13.0241140851,55.5983003375]},"type":"Feature","id":"k1280\/081","properties":{"image":null,"popupContent":"<ul><li> <b>Mellanrummet mellan Yin och Yang<\/b><\/li><li> <a href=\"https:\/\/sv.wikipedia.org\/wiki\/Carl_Fredrik_Reutersw%C3%A4rd\" target=\"_blank\">Carl Fredrik Reutersw\u00e4rd<\/a> - 1991<\/li><li> Malm\u00f6 kommun (Centrum) - Nobelv\u00e4gen 66<\/li><\/ul>","title":"Mellanrummet mellan Yin och Yang"}},{"geometry":{"type":"Point","coordinates":[13.0010264395,55.5983236363]},"type":"Feature","id":"k1280\/056B","properties":{"image":null,"popupContent":"<ul><li> <b>Pompeiansk v\u00e4gg<\/b><\/li><li> Kenneth Croneland, Per L\u00f6fgren (upphovsm\u00e4n) - 2005<\/li><li> Malm\u00f6 kommun (Centrum) - Holmg\u00e5ngen, S. F\u00f6rstadsgatan 23<\/li><\/ul>","title":"Pompeiansk v\u00e4gg"}},{"geometry":{"type":"Point","coordinates":[13.00071764,55.59833082]},"type":"Feature","id":"k1280\/056D","properties":{"image":null,"popupContent":"<ul><li> <b>Granitkar med springvatten<\/b><\/li><li> Tommy Nordstr\u00f6m - 1986<\/li><li> Malm\u00f6 kommun (Centrum) - Holmg\u00e5ngen, S. F\u00f6rstadsgatan 23<\/li><\/ul>","title":"Granitkar med springvatten"}},{"geometry":{"type":"Point","coordinates":[13.0001510328,55.5983653411]},"type":"Feature","id":"k1280\/056E","properties":{"image":null,"popupContent":"<ul><li> <b>Utan titel<\/b><\/li><li> Holger Lundquist - 1984<\/li><li> Malm\u00f6 kommun (Centrum) - Holmg\u00e5ngen<\/li><\/ul>","title":"Utan titel"}},{"geometry":{"type":"Point","coordinates":[13.0075495857,55.5985228178]},"type":"Feature","id":"k1280\/070","properties":{"image":null,"popupContent":"<ul><li> <b>Intervaller<\/b><\/li><li> <a href=\"https:\/\/sv.wikipedia.org\/wiki\/Carl_Magnus\" target=\"_blank\">Carl Magnus<\/a> - 1985<\/li><li> Malm\u00f6 kommun (Centrum) - Framf\u00f6r Stadshuset, August Palms plats<\/li><\/ul>","title":"Intervaller"}},{"geometry":{"type":"Point","coordinates":[12.9863325018,55.5985887519]},"type":"Feature","id":"k1280\/116","properties":{"image":null,"popupContent":"<ul><li> <b>Flicka med krus<\/b><\/li><li> <a href=\"https:\/\/sv.wikipedia.org\/wiki\/Jonas_Fr%C3%B6ding\" target=\"_blank\">Jonas Fr\u00f6ding<\/a><\/li><li> Malm\u00f6 kommun (V\u00e4stra Innerstaden) - Carl Gustavs v\u00e4g 1, vid byggnaden n\u00e4rmast Kronprinsen, Skulpturen flyttades 1965 fr\u00e5n Stora Nygata<\/li><\/ul>","title":"Flicka med krus"}},{"geometry":{"type":"Point","coordinates":[13.018691696,55.5986169021]},"type":"Feature","id":"k1280\/079","properties":{"image":null,"popupContent":"<ul><li> <b>S:t Mikael<\/b><\/li><li> Karl Johan Dyverman - 1987<\/li><li> Malm\u00f6 kommun (Centrum) - S:t Pauli mellersta kyrkog\u00e5rd<\/li><\/ul>","title":"S:t Mikael"}},{"geometry":{"type":"Point","coordinates":[13.001105581,55.5986625821]},"type":"Feature","id":"k1280\/056","properties":{"image":null,"popupContent":"<ul><li> <b>Solens finger<\/b><\/li><li> Marie Lindstr\u00f6m - 1991<\/li><li> Malm\u00f6 kommun (Centrum) - S\u00f6dra F\u00f6rstadsgatan 21<\/li><\/ul>","title":"Solens finger"}},{"geometry":{"type":"Point","coordinates":[12.9876682623,55.5987198188]},"type":"Feature","id":"k1280\/113","properties":{"image":null,"popupContent":"<ul><li> <b>Styrt vatten<\/b><\/li><li> <a href=\"https:\/\/sv.wikipedia.org\/wiki\/Klas_Anshelm\" target=\"_blank\">Klas Anshelm<\/a> - 1965<\/li><li> Malm\u00f6 kommun (V\u00e4stra Innerstaden) - Carl Gustavs v\u00e4g 1<\/li><\/ul>","title":"Styrt vatten"}},{"geometry":{"type":"Point","coordinates":[12.9712690384,55.5987835084]},"type":"Feature","id":"k1280\/125","properties":{"image":null,"popupContent":"<ul><li> <b>Passionsblomman<\/b><\/li><li> <a href=\"https:\/\/sv.wikipedia.org\/wiki\/Thure_Th%C3%B6rn\" target=\"_blank\">Thure Th\u00f6rn<\/a> - 1963<\/li><li> Malm\u00f6 kommun (V\u00e4stra Innerstaden) - Fridhemstorget<\/li><\/ul>","title":"Passionsblomman"}},{"geometry":{"type":"Point","coordinates":[12.9809284643,55.5991345637]},"type":"Feature","id":"k1280\/124","properties":{"image":null,"popupContent":"<ul><li> <b>Flicka med orm<\/b><\/li><li> <a href=\"https:\/\/sv.wikipedia.org\/wiki\/Anders_Olsson_(konstn%C3%A4r)\" target=\"_blank\">Anders Olsson<\/a> - 1957<\/li><li> Malm\u00f6 kommun (V\u00e4stra Innerstaden) - Nils Forsbergs plats<\/li><\/ul>","title":"Flicka med orm"}},{"geometry":{"type":"Point","coordinates":[12.9921572666,55.5991957666]},"type":"Feature","id":"k1280\/115","properties":{"image":null,"popupContent":"<ul><li> <b>Solbadande flickor<\/b><\/li><li> <a href=\"https:\/\/sv.wikipedia.org\/wiki\/Thorwald_Alef\" target=\"_blank\">Torwald Alef<\/a> - 1956<\/li><li> Malm\u00f6 kommun (V\u00e4stra Innerstaden) - Aq-Va-Kul, in p\u00e5 g\u00e5rden Regementsgatan 24<\/li><\/ul>","title":"Solbadande flickor"}},{"geometry":{"type":"Point","coordinates":[13.05009229,55.59941658]},